time,gFx,gFy,gFz,ax,ay,az,wx,wy,wz,latitude,longitude,altitude,speed,yaw,pitch,roll
2024-09-29T22:49:05.021Z,-0.0445,0.2231,-0.9506,0.0338,0.0055,0.0806,0.0085,0.0054,-0.0029,-35.40148998613972,149.11443611620842,667.3858,0.6700,-1.3285,-0.2177,-0.0154
2024-09-29T22:49:05.031Z,-0.0075,0.2086,-0.9823,0.0338,0.0055,0.0806,0.0004,0.0135,-0.0068,-35.40148998613972,149.11443611620842,667.3858,0.6700,-1.3285,-0.2177,-0.0154
2024-09-29T22:49:05.040Z,-0.0075,0.2086,-0.9823,0.0338,0.0055,0.0806,0.0004,0.0135,-0.0068,-35.40148998613972,149.11443611620842,667.3858,0.6700,-1.3285,-0.2178,-0.0155
2024-09-29T22:49:05.051Z,-0.0111,0.2308,-0.9545,0.0338,0.0055,0.0806,0.0125,0.0034,-0.0038,-35.40148998613972,149.11443611620842,667.3858,0.6700,-1.3285,-0.2178,-0.0154
2024-09-29T22:49:05.062Z,-0.0111,0.2308,-0.9545,0.0338,0.0055,0.0806,0.0123,0.0010,-0.0012,-35.40148998613972,149.11443611620842,667.3858,0.6700,-1.3285,-0.2178,-0.0153
2024-09-29T22:49:05.071Z,0.0037,0.1993,-0.9868,0.0338,0.0055,0.0806,-0.0016,0.0156,-0.0101,-35.40148998613972,149.11443611620842,667.3858,0.6700,-1.3285,-0.2178,-0.0154
2024-09-29T22:49:05.081Z,0.0046,0.2116,-0.9971,0.0338,0.0055,0.0806,0.0044,0.0054,-0.0085,-35.40148998613972,149.11443611620842,667.3858,0.6700,-1.3285,-0.2178,-0.0155
2024-09-29T22:49:05.091Z,0.0046,0.2116,-0.9971,0.0338,0.0055,0.0806,0.0217,-0.0008,-0.0043,-35.40148998613972,149.11443611620842,667.3858,0.6700,-1.3285,-0.2178,-0.0154
2024-09-29T22:49:05.101Z,-0.0246,0.2315,-0.9436,0.0338,0.0055,0.0806,0.0108,0.0024,-0.0065,-35.40148998613972,149.11443611620842,667.3858,0.6700,-1.3285,-0.2178,-0.0154
2024-09-29T22:49:05.114Z,-0.0412,0.2186,-0.9633,0.0338,0.0055,0.0806,0.0039,0.0069,-0.0138,-35.40148998613972,149.11443611620842,667.3858,0.6700,-1.3285,-0.2178,-0.0156
2024-09-29T22:49:05.121Z,-0.0002,0.2200,-0.9835,0.0338,0.0055,0.0806,0.0067,0.0002,-0.0136,-35.40148998613972,149.11443611620842,667.3858,0.6700,-1.3285,-0.2178,-0.0155
2024-09-29T22:49:05.131Z,-0.0358,0.2316,-0.9367,0.0338,0.0055,0.0806,0.0126,0.0091,-0.0013,-35.40148998613972,149.11443611620842,667.3858,0.6700,-1.3285,-0.2178,-0.0154
2024-09-29T22:49:05.142Z,-0.0358,0.2316,-0.9367,0.0338,0.0055,0.0806,0.0049,0.0133,-0.0043,-35.40148998613972,149.11443611620842,667.3858,0.6700,-1.3285,-0.2177,-0.0154
2024-09-29T22:49:05.151Z,0.0165,0.1957,-1.0125,0.0338,0.0055,0.0806,-0.0008,0.0121,-0.0121,-35.40148998613972,149.11443611620842,667.3858,0.6700,-1.3285,-0.2178,-0.0156
2024-09-29T22:49:05.163Z,0.0165,0.1957,-1.0125,0.0338,0.0055,0.0806,0.0139,-0.0042,-0.0076,-35.40148998613972,149.11443611620842,667.3858,0.6700,-1.3285,-0.2178,-0.0155
2024-09-29T22:49:05.171Z,-0.0495,0.2263,-0.9441,0.0338,0.0055,0.0806,0.0139,-0.0042,-0.0076,-35.40148998613972,149.11443611620842,667.3858,0.6700,-1.3285,-0.2178,-0.0154
2024-09-29T22:49:05.181Z,-0.0191,0.2070,-0.9821,0.0338,0.0055,0.0806,-0.0008,0.0115,-0.0072,-35.40148998613972,149.11443611620842,667.3858,0.6700,-1.3285,-0.2178,-0.0154
2024-09-29T22:49:05.191Z,0.0025,0.2030,-1.0073,0.0338,0.0055,0.0806,0.0030,0.0120,-0.0073,-35.40148998613972,149.11443611620842,667.3858,0.6700,-1.3285,-0.2178,-0.0155
2024-09-29T22:49:05.201Z,0.0025,0.2030,-1.0073,0.0338,0.0055,0.0806,0.0246,0.0003,-0.0065,-35.40148998613972,149.11443611620842,667.3858,0.6700,-1.3285,-0.2178,-0.0154
2024-09-29T22:49:05.215Z,-0.0132,0.2321,-0.9467,0.0338,0.0055,0.0806,0.0147,0.0016,-0.0021,-35.40148998613972,149.11443611620842,667.3858,0.6700,-1.3285,-0.2178,-0.0154
2024-09-29T22:49:05.221Z,-0.0399,0.2214,-0.9568,0.0338,0.0055,0.0806,-0.0058,0.0204,-0.0077,-35.40148998613972,149.11443611620842,667.3858,0.6700,-1.3285,-0.2178,-0.0156
2024-09-29T22:49:05.232Z,0.0101,0.2124,-1.0035,0.0338,0.0055,0.0806,0.0017,0.0014,-0.0078,-35.40148998613972,149.11443611620842,667.3858,0.6700,-1.3286,-0.2179,-0.0156
2024-09-29T22:49:05.242Z,0.0101,0.2124,-1.0035,0.0338,0.0055,0.0806,0.0167,-0.0101,-0.0047,-35.40148998613972,149.11443611620842,667.3858,0.6700,-1.3286,-0.2178,-0.0155
2024-09-29T22:49:05.251Z,-0.0253,0.2287,-0.9412,0.0338,0.0055,0.0806,0.0113,-0.0007,-0.0072,-35.40148998613972,149.11443611620842,667.3858,0.6700,-1.3285,-0.2178,-0.0154
2024-09-29T22:49:05.264Z,-0.0401,0.2190,-0.9684,0.0338,0.0055,0.0806,-0.0012,0.0103,-0.0071,-35.40148998613972,149.11443611620842,667.3858,0.6700,-1.3285,-0.2178,-0.0155
2024-09-29T22:49:05.270Z,0.0037,0.1969,-1.0022,0.0338,0.0055,0.0806,-0.0012,0.0103,-0.0071,-35.40148998613972,149.11443611620842,667.3858,0.6700,-1.3286,-0.2178,-0.0155
2024-09-29T22:49:05.281Z,-0.0344,0.2274,-0.9474,0.0338,0.0055,0.0806,0.0140,0.0107,-0.0043,-35.40148998613972,149.11443611620842,667.3858,0.6700,-1.3286,-0.2178,-0.0154
2024-09-29T22:49:05.291Z,-0.0344,0.2274,-0.9474,0.0338,0.0055,0.0806,0.0140,0.0107,-0.0043,-35.40148998613972,149.11443611620842,667.3858,0.6700,-1.3285,-0.2178,-0.0155
2024-09-29T22:49:05.301Z,-0.0145,0.2080,-0.9762,0.0338,0.0055,0.0806,-0.0074,0.0165,-0.0111,-35.40148998613972,149.11443611620842,667.3858,0.6700,-1.3286,-0.2178,-0.0157
2024-09-29T22:49:05.315Z,0.0073,0.1982,-1.0097,0.0338,0.0055,0.0806,0.0088,0.0100,-0.0046,-35.40148998613972,149.11443611620842,667.3858,0.6700,-1.3286,-0.2178,-0.0156
2024-09-29T22:49:05.320Z,-0.0115,0.2302,-0.9554,0.0338,0.0055,0.0806,0.0088,0.0100,-0.0046,-35.40148998613972,149.11443611620842,667.3858,0.6700,-1.3286,-0.2178,-0.0155
2024-09-29T22:49:05.331Z,-0.0465,0.2231,-0.9503,0.0338,0.0055,0.0806,-0.0018,0.0084,-0.0102,-35.40148998613972,149.11443611620842,667.3858,0.6700,-1.3285,-0.2178,-0.0155
2024-09-29T22:49:05.341Z,-0.0027,0.2055,-0.9865,0.0338,0.0055,0.0806,-0.0018,0.0084,-0.0102,-35.40148998613972,149.11443611620842,667.3858,0.6700,-1.3286,-0.2178,-0.0156
2024-09-29T22:49:05.351Z,0.0105,0.2105,-1.0025,0.0338,0.0055,0.0806,0.0174,0.0048,-0.0021,-35.40148998613972,149.11443611620842,667.3858,0.6700,-1.3286,-0.2178,-0.0155
2024-09-29T22:49:05.371Z,-0.0338,0.2187,-0.9656,0.0338,0.0055,0.0806,0.0174,0.0048,-0.0021,-35.40148998613972,149.11443611620842,667.3858,0.6700,-1.3286,-0.2178,-0.0155
2024-09-29T22:49:05.381Z,0.0040,0.1984,-0.9946,0.0338,0.0055,0.0806,0.0091,0.0027,-0.0082,-35.40148998613972,149.11443611620842,667.3858,0.6700,-1.3286,-0.2179,-0.0156
2024-09-29T22:49:05.390Z,-0.0040,0.2189,-0.9794,0.0338,0.0055,0.0806,0.0091,0.0027,-0.0082,-35.40148998613972,149.11443611620842,667.3858,0.6700,-1.3286,-0.2178,-0.0155
2024-09-29T22:49:05.401Z,-0.0388,0.2286,-0.9414,0.0338,0.0055,0.0806,0.0169,0.0023,-0.0022,-35.40148998613972,149.11443611620842,667.3858,0.6700,-1.3286,-0.2177,-0.0155
2024-09-29T22:49:05.414Z,-0.0292,0.2179,-0.9695,0.0338,0.0055,0.0806,0.0067,0.0093,-0.0039,-35.40148998613972,149.11443611620842,667.3858,0.6700,-1.3286,-0.2178,-0.0156
2024-09-29T22:49:05.420Z,0.0061,0.1977,-0.9992,0.0338,0.0055,0.0806,0.0008,0.0009,-0.0110,-35.40148998613972,149.11443611620842,667.3858,0.6700,-1.3286,-0.2178,-0.0156
2024-09-29T22:49:05.432Z,-0.0033,0.2263,-0.9721,0.0338,0.0055,0.0806,0.0102,0.0042,-0.0039,-35.40148998613972,149.11443611620842,667.3858,0.6700,-1.3286,-0.2178,-0.0155
2024-09-29T22:49:05.442Z,-0.0416,0.2248,-0.9478,0.0338,0.0055,0.0806,0.0102,0.0042,-0.0039,-35.40148998613972,149.11443611620842,667.3858,0.6700,-1.3286,-0.2178,-0.0155
2024-09-29T22:49:05.451Z,-0.0102,0.2098,-0.9768,0.0338,0.0055,0.0806,0.0017,0.0177,-0.0056,-35.40148998613972,149.11443611620842,667.3858,0.6700,-1.3286,-0.2178,-0.0155
2024-09-29T22:49:05.464Z,0.0079,0.2027,-1.0094,0.0338,0.0055,0.0806,-0.0025,0.0097,-0.0111,-35.40148998613972,149.11443611620842,667.3858,0.6700,-1.3286,-0.2178,-0.0154
2024-09-29T22:49:05.471Z,-0.0138,0.2345,-0.9580,0.0338,0.0055,0.0806,0.0177,-0.0021,-0.0084,-35.40148998613972,149.11443611620842,667.3858,0.6700,-1.3286,-0.2178,-0.0154
2024-09-29T22:49:05.482Z,-0.0483,0.2260,-0.9556,0.0338,0.0055,0.0806,0.0136,0.0051,-0.0009,-35.40148998613972,149.11443611620842,667.3858,0.6700,-1.3286,-0.2178,-0.0155
2024-09-29T22:49:05.491Z,-0.0024,0.2034,-0.9891,0.0338,0.0055,0.0806,-0.0041,0.0147,-0.0107,-35.40148998613972,149.11443611620842,667.3858,0.6700,-1.3286,-0.2179,-0.0156
2024-09-29T22:49:05.501Z,0.0034,0.2093,-1.0003,0.0338,0.0055,0.0806,-0.0010,0.0133,-0.0055,-35.40148998613972,149.11443611620842,667.3858,0.6700,-1.3286,-0.2179,-0.0155
2024-09-29T22:49:05.516Z,-0.0213,0.2314,-0.9398,0.0338,0.0055,0.0806,0.0146,-0.0040,-0.0112,-35.40148998613972,149.11443611620842,667.3858,0.6700,-1.3286,-0.2178,-0.0155
2024-09-29T22:49:05.520Z,-0.0413,0.2171,-0.9613,0.0338,0.0055,0.0806,0.0146,-0.0040,-0.0112,-35.40148998613972,149.11443611620842,667.3858,0.6700,-1.3286,-0.2178,-0.0156
2024-09-29T22:49:05.531Z,0.0100,0.1965,-1.0018,0.0338,0.0055,0.0806,0.0032,0.0105,-0.0073,-35.40148998613972,149.11443611620842,667.3858,0.6700,-1.3286,-0.2179,-0.0156
2024-09-29T22:49:05.541Z,0.0015,0.2180,-0.9882,0.0338,0.0055,0.0806,0.0060,-0.0016,-0.0078,-35.40148998613972,149.11443611620842,667.3858,0.6700,-1.3286,-0.2178,-0.0154
2024-09-29T22:49:05.551Z,-0.0332,0.2291,-0.9375,0.0338,0.0055,0.0806,0.0153,0.0059,-0.0038,-35.40148998613972,149.11443611620842,667.3858,0.6700,-1.3286,-0.2178,-0.0155
2024-09-29T22:49:05.566Z,-0.0308,0.2150,-0.9754,0.0338,0.0055,0.0806,0.0007,0.0070,-0.0114,-35.40148998613972,149.11443611620842,667.3858,0.6700,-1.3286,-0.2179,-0.0156
2024-09-29T22:49:05.570Z,0.0067,0.1956,-1.0056,0.0338,0.0055,0.0806,0.0007,0.0070,-0.0114,-35.40148998613972,149.11443611620842,667.3858,0.6700,-1.3287,-0.2179,-0.0155
2024-09-29T22:49:05.581Z,-0.0020,0.2282,-0.9693,0.0338,0.0055,0.0806,0.0088,0.0042,-0.0043,-35.40148998613972,149.11443611620842,667.3858,0.6700,-1.3287,-0.2178,-0.0155
2024-09-29T22:49:05.591Z,-0.0404,0.2267,-0.9458,0.0338,0.0055,0.0806,0.0136,0.0056,-0.0017,-35.40157816376109,149.11421625888823,667.6170,0.0000,-1.3286,-0.2178,-0.0155
2024-09-29T22:49:05.601Z,-0.0120,0.2049,-0.9785,0.0338,0.0055,0.0806,0.0032,0.0107,-0.0118,-35.40157816376109,149.11421625888823,667.6170,0.0000,-1.3287,-0.2179,-0.0156
2024-09-29T22:49:05.616Z,-0.0133,0.2330,-0.9495,0.0338,0.0055,0.0806,-0.0069,0.0176,-0.0059,-35.40157816376109,149.11421625888823,667.6170,0.0000,-1.3287,-0.2179,-0.0155
2024-09-29T22:49:05.620Z,-0.0133,0.2330,-0.9495,0.0338,0.0055,0.0806,0.0178,-0.0006,-0.0057,-35.40157816376109,149.11421625888823,667.6170,0.0000,-1.3287,-0.2178,-0.0154
2024-09-29T22:49:05.633Z,-0.0477,0.2222,-0.9495,0.0338,0.0055,0.0806,0.0134,0.0064,0.0015,-35.40157816376109,149.11421625888823,667.6170,0.0000,-1.3287,-0.2178,-0.0155
2024-09-29T22:49:05.640Z,-0.0030,0.2002,-0.9937,0.0338,0.0055,0.0806,-0.0033,0.0158,-0.0096,-35.40157816376109,149.11421625888823,667.6170,0.0000,-1.3287,-0.2179,-0.0155
2024-09-29T22:49:05.651Z,0.0070,0.2099,-1.0087,0.0338,0.0055,0.0806,-0.0004,0.0064,-0.0111,-35.40157816376109,149.11421625888823,667.6170,0.0000,-1.3287,-0.2179,-0.0154
2024-09-29T22:49:05.666Z,-0.0354,0.2171,-0.9639,0.0338,0.0055,0.0806,0.0178,0.0002,-0.0017,-35.40157816376109,149.11421625888823,667.6170,0.0000,-1.3287,-0.2178,-0.0154
2024-09-29T22:49:05.670Z,-0.0354,0.2171,-0.9639,0.0338,0.0055,0.0806,0.0080,0.0069,-0.0048,-35.40157816376109,149.11421625888823,667.6170,0.0000,-1.3286,-0.2178,-0.0155
2024-09-29T22:49:05.682Z,0.0092,0.1949,-1.0064,0.0338,0.0055,0.0806,-0.0041,0.0159,-0.0119,-35.40157816376109,149.11421625888823,667.6170,0.0000,-1.3287,-0.2179,-0.0155
2024-09-29T22:49:05.691Z,0.0016,0.2196,-0.9860,0.0338,0.0055,0.0806,0.0105,0.0003,-0.0089,-35.40157816376109,149.11421625888823,667.6170,0.0000,-1.3287,-0.2179,-0.0154
2024-09-29T22:49:05.701Z,-0.0347,0.2286,-0.9330,0.0338,0.0055,0.0806,0.0138,0.0067,-0.0036,-35.40157816376109,149.11421625888823,667.6170,0.0000,-1.3287,-0.2178,-0.0154
2024-09-29T22:49:05.711Z,-0.0238,0.2117,-0.9736,0.0338,0.0055,0.0806,0.0069,0.0126,-0.0080,-35.40157816376109,149.11421625888823,667.6170,0.0000,-1.3287,-0.2179,-0.0156
2024-09-29T22:49:05.720Z,0.0076,0.1949,-1.0106,0.0338,0.0055,0.0806,-0.0025,0.0134,-0.0093,-35.40157816376109,149.11421625888823,667.6170,0.0000,-1.3287,-0.2179,-0.0155
2024-09-29T22:49:05.731Z,-0.0034,0.2304,-0.9614,0.0338,0.0055,0.0806,0.0085,0.0019,-0.0029,-35.40157816376109,149.11421625888823,667.6170,0.0000,-1.3287,-0.2179,-0.0155
2024-09-29T22:49:05.741Z,-0.0427,0.2265,-0.9454,0.0338,0.0055,0.0806,0.0206,0.0006,-0.0007,-35.40157816376109,149.11421625888823,667.6170,0.0000,-1.3287,-0.2179,-0.0155
2024-09-29T22:49:05.751Z,-0.0078,0.2028,-0.9814,0.0338,0.0055,0.0806,0.0028,0.0096,-0.0089,-35.40157816376109,149.11421625888823,667.6170,0.0000,-1.3287,-0.2179,-0.0155
2024-09-29T22:49:05.761Z,0.0084,0.2022,-1.0114,0.0338,0.0055,0.0806,-0.0028,0.0080,-0.0099,-35.40157816376109,149.11421625888823,667.6170,0.0000,-1.3287,-0.2179,-0.0154
2024-09-29T22:49:05.771Z,-0.0124,0.2330,-0.9498,0.0338,0.0055,0.0806,0.0217,-0.0054,-0.0030,-35.40157816376109,149.11421625888823,667.6170,0.0000,-1.3287,-0.2179,-0.0154
2024-09-29T22:49:05.783Z,-0.0414,0.2219,-0.9585,0.0338,0.0055,0.0806,0.0140,0.0008,-0.0064,-35.40157816376109,149.11421625888823,667.6170,0.0000,-1.3287,-0.2179,-0.0155
2024-09-29T22:49:05.791Z,0.0020,0.2000,-0.9939,0.0338,0.0055,0.0806,-0.0020,0.0175,-0.0080,-35.40157816376109,149.11421625888823,667.6170,0.0000,-1.3287,-0.2179,-0.0155
2024-09-29T22:49:05.801Z,0.0040,0.2128,-0.9958,0.0338,0.0055,0.0806,0.0060,0.0052,-0.0111,-35.40157816376109,149.11421625888823,667.6170,0.0000,-1.3287,-0.2179,-0.0154
2024-09-29T22:49:05.811Z,-0.0219,0.2297,-0.9430,0.0338,0.0055,0.0806,0.0198,-0.0038,-0.0036,-35.40157816376109,149.11421625888823,667.6170,0.0000,-1.3287,-0.2179,-0.0155
2024-09-29T22:49:05.821Z,-0.0284,0.2134,-0.9679,0.0338,0.0055,0.0806,0.0104,0.0085,-0.0078,-35.40157816376109,149.11421625888823,667.6170,0.0000,-1.3287,-0.2179,-0.0156
2024-09-29T22:49:05.833Z,0.0094,0.1964,-1.0056,0.0338,0.0055,0.0806,0.0013,0.0059,-0.0101,-35.40157816376109,149.11421625888823,667.6170,0.0000,-1.3287,-0.2180,-0.0155
2024-09-29T22:49:05.841Z,-0.0016,0.2220,-0.9768,0.0338,0.0055,0.0806,0.0091,0.0016,-0.0088,-35.40157816376109,149.11421625888823,667.6170,0.0000,-1.3287,-0.2179,-0.0154
2024-09-29T22:49:05.851Z,-0.0397,0.2261,-0.9451,0.0338,0.0055,0.0806,0.0113,0.0022,-0.0028,-35.40157816376109,149.11421625888823,667.6170,0.0000,-1.3286,-0.2179,-0.0155
2024-09-29T22:49:05.861Z,-0.0178,0.2121,-0.9777,0.0338,0.0055,0.0806,0.0058,0.0042,-0.0078,-35.40157816376109,149.11421625888823,667.6170,0.0000,-1.3286,-0.2180,-0.0156
2024-09-29T22:49:05.871Z,0.0091,0.1987,-1.0054,0.0338,0.0055,0.0806,-0.0020,0.0103,-0.0103,-35.40157816376109,149.11421625888823,667.6170,0.0000,-1.3287,-0.2180,-0.0155
2024-09-29T22:49:05.883Z,-0.0041,0.2306,-0.9588,0.0338,0.0055,0.0806,0.0128,0.0040,-0.0048,-35.40157816376109,149.11421625888823,667.6170,0.0000,-1.3287,-0.2179,-0.0155
2024-09-29T22:49:05.891Z,-0.0429,0.2254,-0.9587,0.0338,0.0055,0.0806,0.0113,0.0032,-0.0027,-35.40157816376109,149.11421625888823,667.6170,0.0000,-1.3286,-0.2180,-0.0156
2024-09-29T22:49:05.901Z,-0.0032,0.2013,-0.9847,0.0338,0.0055,0.0806,-0.0010,0.0119,-0.0083,-35.40157816376109,149.11421625888823,667.6170,0.0000,-1.3287,-0.2180,-0.0156
2024-09-29T22:49:05.911Z,0.0023,0.2070,-1.0032,0.0338,0.0055,0.0806,-0.0024,0.0069,-0.0084,-35.40157816376109,149.11421625888823,667.6170,0.0000,-1.3287,-0.2180,-0.0155
2024-09-29T22:49:05.921Z,-0.0206,0.2354,-0.9438,0.0338,0.0055,0.0806,0.0185,0.0008,-0.0035,-35.40157816376109,149.11421625888823,667.6170,0.0000,-1.3287,-0.2179,-0.0155
2024-09-29T22:49:05.933Z,-0.0455,0.2222,-0.9615,0.0338,0.0055,0.0806,0.0100,0.0030,-0.0063,-35.40157816376109,149.11421625888823,667.6170,0.0000,-1.3287,-0.2179,-0.0156
2024-09-29T22:49:05.940Z,0.0055,0.1991,-0.9946,0.0338,0.0055,0.0806,0.0014,0.0132,-0.0119,-35.40157816376109,149.11421625888823,667.6170,0.0000,-1.3287,-0.2180,-0.0156
2024-09-29T22:49:05.950Z,0.0035,0.2169,-0.9930,0.0338,0.0055,0.0806,0.0060,0.0010,-0.0118,-35.40157816376109,149.11421625888823,667.6170,0.0000,-1.3287,-0.2180,-0.0156
2024-09-29T22:49:05.961Z,-0.0262,0.2326,-0.9419,0.0338,0.0055,0.0806,0.0150,0.0022,-0.0008,-35.40157816376109,149.11421625888823,667.6170,0.0000,-1.3287,-0.2179,-0.0156
2024-09-29T22:49:05.971Z,-0.0298,0.2146,-0.9687,0.0338,0.0055,0.0806,0.0054,0.0070,-0.0065,-35.40157816376109,149.11421625888823,667.6170,0.0000,-1.3287,-0.2180,-0.0157
2024-09-29T22:49:05.981Z,0.0107,0.1955,-0.9989,0.0338,0.0055,0.0806,-0.0026,0.0079,-0.0133,-35.40157816376109,149.11421625888823,667.6170,0.0000,-1.3287,-0.2180,-0.0156
2024-09-29T22:49:05.991Z,-0.0046,0.2262,-0.9790,0.0338,0.0055,0.0806,0.0079,0.0027,-0.0069,-35.40157816376109,149.11421625888823,667.6170,0.0000,-1.3287,-0.2179,-0.0155
2024-09-29T22:49:06.001Z,-0.0422,0.2302,-0.9371,0.0338,0.0055,0.0806,0.0127,0.0043,-0.0053,-35.40157816376109,149.11421625888823,667.6170,0.0000,-1.3287,-0.2179,-0.0155
2024-09-29T22:49:06.011Z,-0.0200,0.2106,-0.9781,0.0338,0.0055,0.0806,0.0012,0.0119,-0.0072,-35.40157816376109,149.11421625888823,667.6170,0.0000,-1.3287,-0.2180,-0.0157
2024-09-29T22:49:06.021Z,0.0073,0.1982,-1.0088,0.0338,0.0055,0.0806,-0.0062,0.0246,-0.0041,-35.40157816376109,149.11421625888823,667.6170,0.0000,-1.3287,-0.2180,-0.0156
2024-09-29T22:49:06.032Z,-0.0089,0.2325,-0.9503,0.0338,0.0055,0.0806,0.0113,0.0107,-0.0038,-35.40157816376109,149.11421625888823,667.6170,0.0000,-1.3287,-0.2179,-0.0156
2024-09-29T22:49:06.041Z,-0.0506,0.2273,-0.9503,0.0338,0.0055,0.0806,0.0105,0.0036,-0.0065,-35.40157816376109,149.11421625888823,667.6170,0.0000,-1.3287,-0.2180,-0.0156
2024-09-29T22:49:06.051Z,-0.0048,0.1994,-0.9893,0.0338,0.0055,0.0806,-0.0017,0.0172,-0.0060,-35.40157816376109,149.11421625888823,667.6170,0.0000,-1.3287,-0.2180,-0.0157
2024-09-29T22:49:06.061Z,0.0064,0.2057,-1.0014,0.0338,0.0055,0.0806,-0.0008,0.0121,-0.0079,-35.40157816376109,149.11421625888823,667.6170,0.0000,-1.3287,-0.2180,-0.0156
2024-09-29T22:49:06.071Z,-0.0211,0.2383,-0.9417,0.0338,0.0055,0.0806,0.0181,0.0022,-0.0040,-35.40157816376109,149.11421625888823,667.6170,0.0000,-1.3287,-0.2179,-0.0156
2024-09-29T22:49:06.083Z,-0.0483,0.2169,-0.9669,0.0338,0.0055,0.0806,0.0083,0.0099,-0.0063,-35.40157816376109,149.11421625888823,667.6170,0.0000,-1.3287,-0.2180,-0.0157
2024-09-29T22:49:06.091Z,0.0025,0.1966,-1.0013,0.0338,0.0055,0.0806,-0.0041,0.0175,-0.0117,-35.40157816376109,149.11421625888823,667.6170,0.0000,-1.3287,-0.2180,-0.0157
2024-09-29T22:49:06.101Z,0.0013,0.2191,-0.9831,0.0338,0.0055,0.0806,0.0064,0.0029,-0.0089,-35.40157816376109,149.11421625888823,667.6170,0.0000,-1.3287,-0.2179,-0.0156
2024-09-29T22:49:06.111Z,-0.0321,0.2347,-0.9379,0.0338,0.0055,0.0806,0.0195,0.0029,-0.0023,-35.40157816376109,149.11421625888823,667.6170,0.0000,-1.3287,-0.2179,-0.0156
2024-09-29T22:49:06.121Z,-0.0300,0.2073,-0.9835,0.0338,0.0055,0.0806,0.0047,0.0055,-0.0098,-35.40157816376109,149.11421625888823,667.6170,0.0000,-1.3287,-0.2180,-0.0157
2024-09-29T22:49:06.133Z,0.0096,0.1970,-1.0046,0.0338,0.0055,0.0806,0.0013,0.0143,-0.0102,-35.40157816376109,149.11421625888823,667.6170,0.0000,-1.3287,-0.2180,-0.0157
2024-09-29T22:49:06.141Z,-0.0034,0.2329,-0.9566,0.0338,0.0055,0.0806,0.0167,-0.0027,-0.0080,-35.40157816376109,149.11421625888823,667.6170,0.0000,-1.3287,-0.2179,-0.0157
2024-09-29T22:49:06.151Z,-0.0452,0.2249,-0.9546,0.0338,0.0055,0.0806,0.0088,0.0088,-0.0042,-35.40157816376109,149.11421625888823,667.6170,0.0000,-1.3287,-0.2180,-0.0157
2024-09-29T22:49:06.161Z,-0.0204,0.2007,-0.9910,0.0338,0.0055,0.0806,0.0009,0.0109,-0.0113,-35.40157816376109,149.11421625888823,667.6170,0.0000,-1.3287,-0.2180,-0.0158
2024-09-29T22:49:06.171Z,0.0018,0.2088,-0.9893,0.0338,0.0055,0.0806,0.0049,0.0017,-0.0093,-35.40157816376109,149.11421625888823,667.6170,0.0000,-1.3287,-0.2180,-0.0157
2024-09-29T22:49:06.183Z,-0.0095,0.2388,-0.9386,0.0338,0.0055,0.0806,0.0173,0.0025,-0.0066,-35.40157816376109,149.11421625888823,667.6170,0.0000,-1.3287,-0.2179,-0.0157
2024-09-29T22:49:06.191Z,-0.0430,0.2164,-0.9809,0.0338,0.0055,0.0806,0.0122,0.0044,-0.0054,-35.40157816376109,149.11421625888823,667.6170,0.0000,-1.3287,-0.2180,-0.0157
2024-09-29T22:49:06.201Z,-0.0042,0.1970,-0.9955,0.0338,0.0055,0.0806,-0.0011,0.0180,-0.0073,-35.40157816376109,149.11421625888823,667.6170,0.0000,-1.3288,-0.2181,-0.0158
2024-09-29T22:49:06.211Z,0.0026,0.2199,-0.9722,0.0338,0.0055,0.0806,0.0091,0.0048,-0.0081,-35.40157816376109,149.11421625888823,667.6170,0.0000,-1.3288,-0.2180,-0.0157
2024-09-29T22:49:06.221Z,-0.0228,0.2330,-0.9418,0.0338,0.0055,0.0806,0.0171,-0.0056,-0.0069,-35.40157816376109,149.11421625888823,667.6170,0.0000,-1.3287,-0.2180,-0.0157
2024-09-29T22:49:06.233Z,-0.0373,0.2089,-0.9903,0.0338,0.0055,0.0806,0.0041,0.0053,-0.0075,-35.40157816376109,149.11421625888823,667.6170,0.0000,-1.3287,-0.2180,-0.0157
2024-09-29T22:49:06.241Z,0.0017,0.1967,-0.9948,0.0338,0.0055,0.0806,0.0036,0.0114,-0.0092,-35.40157816376109,149.11421625888823,667.6170,0.0000,-1.3288,-0.2180,-0.0157
2024-09-29T22:49:06.251Z,0.0038,0.2280,-0.9563,0.0338,0.0055,0.0806,0.0155,-0.0032,-0.0114,-35.40157816376109,149.11421625888823,667.6170,0.0000,-1.3288,-0.2180,-0.0157
2024-09-29T22:49:06.261Z,-0.0279,0.2239,-0.9589,0.0338,0.0055,0.0806,0.0065,0.0077,-0.0020,-35.40157816376109,149.11421625888823,667.6170,0.0000,-1.3287,-0.2180,-0.0157
2024-09-29T22:49:06.271Z,-0.0221,0.1991,-0.9935,0.0338,0.0055,0.0806,0.0017,0.0205,-0.0077,-35.40157816376109,149.11421625888823,667.6170,0.0000,-1.3288,-0.2181,-0.0157
2024-09-29T22:49:06.283Z,0.0048,0.1978,-0.9884,0.0338,0.0055,0.0806,0.0090,-0.0010,-0.0120,-35.40157816376109,149.11421625888823,667.6170,0.0000,-1.3288,-0.2181,-0.0157
2024-09-29T22:49:06.291Z,-0.0049,0.2336,-0.9411,0.0338,0.0055,0.0806,0.0159,-0.0039,-0.0083,-35.40157816376109,149.11421625888823,667.6170,0.0000,-1.3287,-0.2180,-0.0157
2024-09-29T22:49:06.302Z,-0.0432,0.2140,-0.9715,0.0338,0.0055,0.0806,0.0021,0.0159,-0.0026,-35.40157816376109,149.11421625888823,667.6170,0.0000,-1.3287,-0.2181,-0.0157
2024-09-29T22:49:06.311Z,-0.0115,0.1946,-0.9993,0.0338,0.0055,0.0806,-0.0039,0.0184,-0.0089,-35.40157816376109,149.11421625888823,667.6170,0.0000,-1.3288,-0.2181,-0.0157
2024-09-29T22:49:06.321Z,0.0080,0.2085,-0.9816,0.0338,0.0055,0.0806,0.0069,0.0087,-0.0049,-35.40157816376109,149.11421625888823,667.6170,0.0000,-1.3288,-0.2181,-0.0157
2024-09-29T22:49:06.332Z,-0.0049,0.2333,-0.9354,0.0338,0.0055,0.0806,0.0094,0.0016,-0.0056,-35.40157816376109,149.11421625888823,667.6170,0.0000,-1.3287,-0.2180,-0.0157
2024-09-29T22:49:06.340Z,-0.0373,0.2088,-0.9925,0.0338,0.0055,0.0806,-0.0026,0.0123,-0.0022,-35.40157816376109,149.11421625888823,667.6170,0.0000,-1.3287,-0.2181,-0.0157
2024-09-29T22:49:06.352Z,0.0054,0.1885,-1.0014,0.0338,0.0055,0.0806,-0.0028,0.0182,-0.0053,-35.40157816376109,149.11421625888823,667.6170,0.0000,-1.3288,-0.2181,-0.0157
2024-09-29T22:49:06.361Z,0.0024,0.2216,-0.9651,0.0338,0.0055,0.0806,0.0093,-0.0034,-0.0045,-35.40157816376109,149.11421625888823,667.6170,0.0000,-1.3287,-0.2180,-0.0156
2024-09-29T22:49:06.371Z,-0.0209,0.2343,-0.9463,0.0338,0.0055,0.0806,0.0181,-0.0073,-0.0061,-35.40157816376109,149.11421625888823,667.6170,0.0000,-1.3287,-0.2181,-0.0156
2024-09-29T22:49:06.385Z,-0.0373,0.2068,-1.0002,0.0338,0.0055,0.0806,-0.0019,0.0134,-0.0072,-35.40157816376109,149.11421625888823,667.6170,0.0000,-1.3287,-0.2181,-0.0157
2024-09-29T22:49:06.390Z,0.0029,0.1981,-0.9945,0.0338,0.0055,0.0806,-0.0019,0.0134,-0.0072,-35.40157816376109,149.11421625888823,667.6170,0.0000,-1.3288,-0.2181,-0.0157
2024-09-29T22:49:06.400Z,0.0020,0.2364,-0.9473,0.0338,0.0055,0.0806,0.0118,-0.0004,-0.0078,-35.40157816376109,149.11421625888823,667.6170,0.0000,-1.3287,-0.2180,-0.0156
2024-09-29T22:49:06.411Z,-0.0338,0.2274,-0.9569,0.0338,0.0055,0.0806,0.0062,0.0012,-0.0052,-35.40157816376109,149.11421625888823,667.6170,0.0000,-1.3287,-0.2181,-0.0156
2024-09-29T22:49:06.425Z,-0.0237,0.2048,-1.0042,0.0338,0.0055,0.0806,0.0046,0.0031,-0.0108,-35.40157816376109,149.11421625888823,667.6170,0.0000,-1.3287,-0.2181,-0.0156
2024-09-29T22:49:06.432Z,0.0120,0.2086,-0.9839,0.0338,0.0055,0.0806,0.0068,0.0061,-0.0097,-35.40157816376109,149.11421625888823,667.6170,0.0000,-1.3288,-0.2181,-0.0155
2024-09-29T22:49:06.441Z,-0.0006,0.2460,-0.9393,0.0338,0.0055,0.0806,0.0119,-0.0006,-0.0050,-35.40157816376109,149.11421625888823,667.6170,0.0000,-1.3287,-0.2180,-0.0155
2024-09-29T22:49:06.451Z,-0.0474,0.2279,-0.9729,0.0338,0.0055,0.0806,0.0062,0.0039,-0.0041,-35.40157816376109,149.11421625888823,667.6170,0.0000,-1.3287,-0.2181,-0.0155
2024-09-29T22:49:06.461Z,-0.0168,0.2048,-1.0001,0.0338,0.0055,0.0806,0.0035,0.0025,-0.0131,-35.40157816376109,149.11421625888823,667.6170,0.0000,-1.3288,-0.2181,-0.0155
2024-09-29T22:49:06.471Z,0.0033,0.2192,-0.9734,0.0338,0.0055,0.0806,0.0075,0.0056,-0.0064,-35.40157816376109,149.11421625888823,667.6170,0.0000,-1.3288,-0.2181,-0.0155
2024-09-29T22:49:06.483Z,-0.0134,0.2465,-0.9370,0.0338,0.0055,0.0806,0.0206,-0.0087,-0.0071,-35.40157816376109,149.11421625888823,667.6170,0.0000,-1.3288,-0.2180,-0.0154
2024-09-29T22:49:06.491Z,-0.0462,0.2166,-0.9872,0.0338,0.0055,0.0806,0.0087,-0.0020,-0.0052,-35.40157816376109,149.11421625888823,667.6170,0.0000,-1.3288,-0.2181,-0.0154
2024-09-29T22:49:06.501Z,0.0044,0.1958,-1.0003,0.0338,0.0055,0.0806,-0.0013,0.0134,-0.0099,-35.40157816376109,149.11421625888823,667.6170,0.0000,-1.3288,-0.2181,-0.0155
2024-09-29T22:49:06.511Z,0.0054,0.2279,-0.9685,0.0338,0.0055,0.0806,0.0095,0.0033,-0.0100,-35.40157816376109,149.11421625888823,667.6170,0.0000,-1.3288,-0.2181,-0.0154
2024-09-29T22:49:06.521Z,-0.0259,0.2359,-0.9349,0.0338,0.0055,0.0806,0.0182,0.0034,-0.0036,-35.40157816376109,149.11421625888823,667.6170,0.0000,-1.3288,-0.2181,-0.0154
2024-09-29T22:49:06.533Z,-0.0434,0.2084,-0.9956,0.0338,0.0055,0.0806,-0.0018,0.0111,-0.0091,-35.40157816376109,149.11421625888823,667.6170,0.0000,-1.3288,-0.2181,-0.0155
2024-09-29T22:49:06.541Z,0.0062,0.1971,-0.9960,0.0338,0.0055,0.0806,0.0040,0.0082,-0.0120,-35.40157816376109,149.11421625888823,667.6170,0.0000,-1.3288,-0.2181,-0.0155
2024-09-29T22:49:06.551Z,0.0030,0.2333,-0.9541,0.0338,0.0055,0.0806,-0.0041,0.0052,-0.0077,-35.40157816376109,149.11421625888823,667.6170,0.0000,-1.3288,-0.2180,-0.0154
2024-09-29T22:49:06.561Z,-0.0320,0.2225,-0.9547,0.0338,0.0055,0.0806,0.0073,0.0126,-0.0018,-35.40157816376109,149.11421625888823,667.6170,0.0000,-1.3288,-0.2181,-0.0154
2024-09-29T22:49:06.571Z,-0.0214,0.1946,-1.0016,0.0338,0.0055,0.0806,0.0024,0.0073,-0.0027,-35.40157816376109,149.11421625888823,667.6170,0.0000,-1.3288,-0.2181,-0.0155
2024-09-29T22:49:06.583Z,0.0057,0.1985,-0.9891,0.0338,0.0055,0.0806,-0.0018,0.0095,-0.0109,-35.4015781637612,149.11421625888823,667.6170,0.0000,-1.3288,-0.2181,-0.0154
2024-09-29T22:49:06.591Z,-0.0060,0.2354,-0.9360,0.0338,0.0055,0.0806,0.0106,0.0112,-0.0035,-35.4015781637612,149.11421625888823,667.6170,0.0000,-1.3288,-0.2180,-0.0154
2024-09-29T22:49:06.601Z,-0.0497,0.2091,-0.9708,0.0338,0.0055,0.0806,-0.0026,0.0180,-0.0011,-35.4015781637612,149.11421625888823,667.6170,0.0000,-1.3287,-0.2181,-0.0154
2024-09-29T22:49:06.611Z,-0.0088,0.1907,-1.0036,0.0338,0.0055,0.0806,-0.0087,0.0170,-0.0093,-35.4015781637612,149.11421625888823,667.6170,0.0000,-1.3288,-0.2181,-0.0154
2024-09-29T22:49:06.621Z,0.0050,0.2125,-0.9799,0.0338,0.0055,0.0806,0.0041,0.0008,-0.0070,-35.4015781637612,149.11421625888823,667.6170,0.0000,-1.3288,-0.2181,-0.0153
2024-09-29T22:49:06.636Z,-0.0148,0.2339,-0.9391,0.0338,0.0055,0.0806,0.0145,0.0037,0.0012,-35.4015781637612,149.11421625888823,667.6170,0.0000,-1.3287,-0.2180,-0.0152
2024-09-29T22:49:06.641Z,-0.0414,0.2063,-0.9911,0.0338,0.0055,0.0806,0.0009,0.0150,-0.0070,-35.4015781637612,149.11421625888823,667.6170,0.0000,-1.3287,-0.2181,-0.0153
2024-09-29T22:49:06.652Z,-0.0027,0.1896,-0.9964,0.0338,0.0055,0.0806,-0.0028,0.0295,-0.0059,-35.4015781637612,149.11421625888823,667.6170,0.0000,-1.3287,-0.2181,-0.0153
2024-09-29T22:49:06.661Z,-0.0047,0.2256,-0.9548,0.0338,0.0055,0.0806,0.0122,-0.0004,-0.0068,-35.4015781637612,149.11421625888823,667.6170,0.0000,-1.3287,-0.2181,-0.0153
2024-09-29T22:49:06.671Z,-0.0360,0.2253,-0.9423,0.0338,0.0055,0.0806,0.0120,0.0072,-0.0042,-35.4015781637612,149.11421625888823,667.6170,0.0000,-1.3287,-0.2181,-0.0153
2024-09-29T22:49:06.686Z,-0.0307,0.2042,-0.9941,0.0338,0.0055,0.0806,-0.0062,0.0157,-0.0072,-35.4015781637612,149.11421625888823,667.6170,0.0000,-1.3287,-0.2181,-0.0153
2024-09-29T22:49:06.690Z,0.0072,0.1984,-0.9939,0.0338,0.0055,0.0806,0.0037,0.0108,-0.0067,-35.4015781637612,149.11421625888823,667.6170,0.0000,-1.3287,-0.2181,-0.0153
2024-09-29T22:49:06.701Z,0.0039,0.2344,-0.9387,0.0338,0.0055,0.0806,0.0132,0.0063,-0.0008,-35.4015781637612,149.11421625888823,667.6170,0.0000,-1.3287,-0.2180,-0.0152
2024-09-29T22:49:06.710Z,-0.0434,0.2227,-0.9683,0.0338,0.0055,0.0806,0.0060,0.0050,-0.0051,-35.4015781637612,149.11421625888823,667.6170,0.0000,-1.3287,-0.2180,-0.0152
2024-09-29T22:49:06.721Z,-0.0152,0.1994,-0.9898,0.0338,0.0055,0.0806,-0.0033,0.0210,-0.0080,-35.4015781637612,149.11421625888823,667.6170,0.0000,-1.3287,-0.2181,-0.0152
2024-09-29T22:49:06.731Z,0.0035,0.2111,-0.9807,0.0338,0.0055,0.0806,0.0067,0.0103,-0.0040,-35.4015781637612,149.11421625888823,667.6170,0.0000,-1.3287,-0.2180,-0.0151
2024-09-29T22:49:06.741Z,-0.0106,0.2389,-0.9389,0.0338,0.0055,0.0806,0.0160,-0.0025,-0.0059,-35.4015781637612,149.11421625888823,667.6170,0.0000,-1.3286,-0.2180,-0.0150
2024-09-29T22:49:06.751Z,-0.0433,0.2192,-0.9894,0.0338,0.0055,0.0806,0.0034,0.0105,-0.0048,-35.4015781637612,149.11421625888823,667.6170,0.0000,-1.3287,-0.2181,-0.0151
2024-09-29T22:49:06.762Z,-0.0018,0.2045,-1.0036,0.0338,0.0055,0.0806,-0.0015,0.0178,-0.0098,-35.4015781637612,149.11421625888823,667.6170,0.0000,-1.3287,-0.2181,-0.0151
2024-09-29T22:49:06.771Z,0.0038,0.2229,-0.9695,0.0338,0.0055,0.0806,0.0085,0.0031,-0.0099,-35.4015781637612,149.11421625888823,667.6170,0.0000,-1.3287,-0.2180,-0.0151
2024-09-29T22:49:06.781Z,-0.0188,0.2386,-0.9505,0.0338,0.0055,0.0806,0.0159,0.0021,-0.0022,-35.4015781637612,149.11421625888823,667.6170,0.0000,-1.3287,-0.2180,-0.0151
2024-09-29T22:49:06.791Z,-0.0353,0.2136,-0.9995,0.0338,0.0055,0.0806,0.0032,0.0048,-0.0089,-35.4015781637612,149.11421625888823,667.6170,0.0000,-1.3287,-0.2181,-0.0151
2024-09-29T22:49:06.802Z,0.0106,0.2012,-0.9995,0.0338,0.0055,0.0806,0.0062,0.0088,-0.0088,-35.4015781637612,149.11421625888823,667.6170,0.0000,-1.3287,-0.2181,-0.0151
2024-09-29T22:49:06.811Z,0.0070,0.2382,-0.9639,0.0338,0.0055,0.0806,0.0185,-0.0107,-0.0101,-35.4015781637612,149.11421625888823,667.6170,0.0000,-1.3287,-0.2181,-0.0151
2024-09-29T22:49:06.821Z,-0.0264,0.2282,-0.9668,0.0338,0.0055,0.0806,0.0113,0.0026,-0.0066,-35.4015781637612,149.11421625888823,667.6170,0.0000,-1.3287,-0.2181,-0.0151
2024-09-29T22:49:06.831Z,-0.0214,0.2079,-1.0032,0.0338,0.0055,0.0806,-0.0034,0.0191,-0.0075,-35.4015781637612,149.11421625888823,667.6170,0.0000,-1.3287,-0.2181,-0.0151
2024-09-29T22:49:06.841Z,0.0070,0.2065,-0.9901,0.0338,0.0055,0.0806,0.0031,0.0057,-0.0099,-35.4015781637612,149.11421625888823,667.6170,0.0000,-1.3287,-0.2181,-0.0151
2024-09-29T22:49:06.853Z,0.0011,0.2371,-0.9414,0.0338,0.0055,0.0806,0.0128,0.0011,-0.0047,-35.4015781637612,149.11421625888823,667.6170,0.0000,-1.3287,-0.2181,-0.0151
2024-09-29T22:49:06.861Z,-0.0370,0.2153,-0.9741,0.0338,0.0055,0.0806,0.0026,0.0103,-0.0057,-35.4015781637612,149.11421625888823,667.6170,0.0000,-1.3287,-0.2181,-0.0151
2024-09-29T22:49:06.871Z,-0.0021,0.1994,-0.9993,0.0338,0.0055,0.0806,-0.0006,0.0096,-0.0106,-35.4015781637612,149.11421625888823,667.6170,0.0000,-1.3287,-0.2182,-0.0152
2024-09-29T22:49:06.881Z,0.0104,0.2168,-0.9768,0.0338,0.0055,0.0806,0.0042,0.0003,-0.0069,-35.4015781637612,149.11421625888823,667.6170,0.0000,-1.3287,-0.2182,-0.0152
2024-09-29T22:49:06.890Z,-0.0045,0.2294,-0.9311,0.0338,0.0055,0.0806,0.0181,-0.0029,-0.0037,-35.4015781637612,149.11421625888823,667.6170,0.0000,-1.3288,-0.2182,-0.0152
2024-09-29T22:49:06.901Z,-0.0468,0.2083,-0.9928,0.0338,0.0055,0.0806,-0.0320,0.0371,-0.0002,-35.4015781637612,149.11421625888823,667.6170,0.0000,-1.3287,-0.2181,-0.0152
2024-09-29T22:49:06.911Z,0.0070,0.1814,-0.9668,0.0338,0.0055,0.0806,-0.0174,0.0587,-0.0012,-35.4015781637612,149.11421625888823,667.6170,0.0000,-1.3287,-0.2183,-0.0153
2024-09-29T22:49:06.921Z,0.0088,0.2091,-0.9706,0.0338,0.0055,0.0806,-0.0127,0.0091,-0.0109,-35.4015781637612,149.11421625888823,667.6170,0.0000,-1.3288,-0.2183,-0.0154
2024-09-29T22:49:06.930Z,-0.0121,0.2287,-0.9418,0.0338,0.0055,0.0806,0.0031,0.0014,-0.0093,-35.4015781637612,149.11421625888823,667.6170,0.0000,-1.3287,-0.2182,-0.0153
2024-09-29T22:49:06.941Z,-0.0381,0.2000,-0.9886,0.0338,0.0055,0.0806,0.0132,-0.0142,-0.0140,-35.4015781637612,149.11421625888823,667.6170,0.0000,-1.3287,-0.2183,-0.0153
2024-09-29T22:49:06.951Z,-0.0012,0.1922,-0.9796,0.0338,0.0055,0.0806,0.0116,-0.0041,-0.0096,-35.4015781637612,149.11421625888823,667.6170,0.0000,-1.3287,-0.2183,-0.0154
2024-09-29T22:49:06.960Z,-0.0110,0.2284,-0.9585,0.0338,0.0055,0.0806,0.0335,-0.0202,-0.0132,-35.4015781637612,149.11421625888823,667.6170,0.0000,-1.3287,-0.2183,-0.0153
2024-09-29T22:49:06.971Z,-0.0424,0.2147,-0.9426,0.0338,0.0055,0.0806,0.0138,-0.0056,-0.0093,-35.4015781637612,149.11421625888823,667.6170,0.0000,-1.3287,-0.2182,-0.0153
2024-09-29T22:49:06.980Z,-0.0315,0.2043,-1.0016,0.0338,0.0055,0.0806,0.0077,0.0041,-0.0106,-35.4015781637612,149.11421625888823,667.6170,0.0000,-1.3287,-0.2183,-0.0153
2024-09-29T22:49:06.990Z,0.0099,0.1990,-1.0009,0.0338,0.0055,0.0806,0.0071,-0.0044,-0.0131,-35.4015781637612,149.11421625888823,667.6170,0.0000,-1.3287,-0.2183,-0.0154
2024-09-29T22:49:07.004Z,-0.0004,0.2343,-0.9448,0.0338,0.0055,0.0806,0.0214,-0.0217,-0.0093,-35.4015781637612,149.11421625888823,667.6170,0.0000,-1.3287,-0.2182,-0.0153
2024-09-29T22:49:07.010Z,-0.0372,0.2202,-0.9794,0.0338,0.0055,0.0806,0.0154,-0.0125,-0.0070,-35.4015781637612,149.11421625888823,667.6170,0.0000,-1.3287,-0.2182,-0.0153
2024-09-29T22:49:07.021Z,-0.0113,0.2001,-1.0065,0.0338,0.0055,0.0806,-0.0007,0.0046,-0.0120,-35.4015781637612,149.11421625888823,667.6170,0.0000,-1.3287,-0.2183,-0.0153
2024-09-29T22:49:07.031Z,0.0020,0.2198,-0.9813,0.0338,0.0055,0.0806,0.0029,0.0063,-0.0092,-35.4015781637612,149.11421625888823,667.6170,0.0000,-1.3288,-0.2183,-0.0154
2024-09-29T22:49:07.040Z,-0.0123,0.2403,-0.9388,0.0338,0.0055,0.0806,-0.0259,0.0431,0.0102,-35.4015781637612,149.11421625888823,667.6170,0.0000,-1.3288,-0.2183,-0.0154
2024-09-29T22:49:07.054Z,-0.0435,0.2357,-1.0004,0.0338,0.0055,0.0806,-0.0247,0.0458,-0.0090,-35.4015781637612,149.11421625888823,667.6170,0.0000,-1.3288,-0.2182,-0.0155
2024-09-29T22:49:07.060Z,-0.0105,0.2017,-0.9811,0.0338,0.0055,0.0806,-0.0109,0.0105,-0.0089,-35.4015781637612,149.11421625888823,667.6170,0.0000,-1.3288,-0.2183,-0.0156
2024-09-29T22:49:07.071Z,-0.0069,0.2431,-0.9490,0.0338,0.0055,0.0806,0.0100,-0.0071,-0.0109,-35.4015781637612,149.11421625888823,667.6170,0.0000,-1.3288,-0.2183,-0.0156
2024-09-29T22:49:07.081Z,-0.0334,0.2384,-0.9478,0.0338,0.0055,0.0806,0.0125,-0.0080,-0.0062,-35.4015781637612,149.11421625888823,667.6170,0.0000,-1.3288,-0.2182,-0.0156
2024-09-29T22:49:07.091Z,-0.0341,0.2162,-0.9910,0.0338,0.0055,0.0806,0.0066,-0.0006,-0.0082,-35.4015781637612,149.11421625888823,667.6170,0.0000,-1.3288,-0.2183,-0.0156
2024-09-29T22:49:07.102Z,0.0010,0.2146,-0.9924,0.0338,0.0055,0.0806,0.0092,0.0050,-0.0087,-35.4015781637612,149.11421625888823,667.6170,0.0000,-1.3289,-0.2183,-0.0157
2024-09-29T22:49:07.111Z,-0.0026,0.2411,-0.9402,0.0338,0.0055,0.0806,0.0238,-0.0126,-0.0138,-35.4015781637612,149.11421625888823,667.6170,0.0000,-1.3289,-0.2184,-0.0156
2024-09-29T22:49:07.121Z,-0.0402,0.2363,-0.9725,0.0338,0.0055,0.0806,0.0167,-0.0067,-0.0075,-35.4015781637612,149.11421625888823,667.6170,0.0000,-1.3289,-0.2183,-0.0157
2024-09-29T22:49:07.131Z,-0.0261,0.2096,-0.9904,0.0338,0.0055,0.0806,0.0075,-0.0001,-0.0120,-35.4015781637612,149.11421625888823,667.6170,0.0000,-1.3289,-0.2184,-0.0157
2024-09-29T22:49:07.141Z,0.0007,0.2169,-0.9859,0.0338,0.0055,0.0806,0.0142,-0.0109,-0.0106,-35.4015781637612,149.11421625888823,667.6170,0.0000,-1.3289,-0.2185,-0.0157
2024-09-29T22:49:07.154Z,-0.0099,0.2441,-0.9391,0.0338,0.0055,0.0806,0.0173,-0.0033,-0.0058,-35.4015781637612,149.11421625888823,667.6170,0.0000,-1.3289,-0.2185,-0.0157
2024-09-29T22:49:07.160Z,-0.0458,0.2206,-0.9699,0.0338,0.0055,0.0806,0.0084,0.0062,-0.0054,-35.4015781637612,149.11421625888823,667.6170,0.0000,-1.3289,-0.2185,-0.0157
2024-09-29T22:49:07.171Z,-0.0041,0.2092,-0.9919,0.0338,0.0055,0.0806,0.0045,0.0183,-0.0041,-35.4015781637612,149.11421625888823,667.6170,0.0000,-1.3289,-0.2186,-0.0158
2024-09-29T22:49:07.182Z,-0.0003,0.2217,-0.9678,0.0338,0.0055,0.0806,0.0074,0.0088,-0.0089,-35.4015781637612,149.11421625888823,667.6170,0.0000,-1.3290,-0.2187,-0.0159
2024-09-29T22:49:07.190Z,-0.0148,0.2424,-0.9358,0.0338,0.0055,0.0806,0.0161,0.0047,-0.0020,-35.4015781637612,149.11421625888823,667.6170,0.0000,-1.3289,-0.2187,-0.0159
2024-09-29T22:49:07.204Z,-0.0433,0.2150,-0.9951,0.0338,0.0055,0.0806,0.0043,-0.0002,-0.0081,-35.4015781637612,149.11421625888823,667.6170,0.0000,-1.3289,-0.2186,-0.0159
2024-09-29T22:49:07.211Z,-0.0003,0.2053,-0.9926,0.0338,0.0055,0.0806,-0.0021,0.0088,-0.0092,-35.4015781637612,149.11421625888823,667.6170,0.0000,-1.3289,-0.2187,-0.0160
2024-09-29T22:49:07.221Z,0.0032,0.2397,-0.9426,0.0338,0.0055,0.0806,0.0189,-0.0037,-0.0028,-35.4015781637612,149.11421625888823,667.6170,0.0000,-1.3289,-0.2188,-0.0159
2024-09-29T22:49:07.231Z,-0.0221,0.2368,-0.9548,0.0338,0.0055,0.0806,0.0125,0.0021,-0.0045,-35.4015781637612,149.11421625888823,667.6170,0.0000,-1.3289,-0.2187,-0.0158
2024-09-29T22:49:07.241Z,-0.0244,0.2022,-1.0108,0.0338,0.0055,0.0806,0.0018,0.0146,-0.0097,-35.4015781637612,149.11421625888823,667.6170,0.0000,-1.3289,-0.2187,-0.0159
2024-09-29T22:49:07.253Z,0.0051,0.2040,-0.9974,0.0338,0.0055,0.0806,0.0075,0.0117,-0.0078,-35.4015781637612,149.11421625888823,667.6170,0.0000,-1.3289,-0.2188,-0.0159
2024-09-29T22:49:07.260Z,-0.0073,0.2462,-0.9301,0.0338,0.0055,0.0806,0.0239,-0.0075,-0.0093,-35.4015781637612,149.11421625888823,667.6170,0.0000,-1.3289,-0.2188,-0.0159
2024-09-29T22:49:07.271Z,-0.0386,0.2207,-0.9515,0.0338,0.0055,0.0806,0.0142,-0.0029,-0.0067,-35.4015781637612,149.11421625888823,667.6170,0.0000,-1.3289,-0.2187,-0.0159
2024-09-29T22:49:07.281Z,-0.0142,0.1983,-1.0081,0.0338,0.0055,0.0806,-0.0008,0.0074,-0.0107,-35.4015781637612,149.11421625888823,667.6170,0.0000,-1.3289,-0.2187,-0.0159
2024-09-29T22:49:07.291Z,0.0021,0.2155,-0.9996,0.0338,0.0055,0.0806,0.0048,0.0094,-0.0089,-35.4015781637612,149.11421625888823,667.6170,0.0000,-1.3289,-0.2187,-0.0159
2024-09-29T22:49:07.304Z,-0.0054,0.2398,-0.9234,0.0338,0.0055,0.0806,0.0200,0.0082,-0.0021,-35.4015781637612,149.11421625888823,667.6170,0.0000,-1.3289,-0.2187,-0.0158
2024-09-29T22:49:07.310Z,-0.0349,0.2116,-0.9711,0.0338,0.0055,0.0806,0.0095,0.0046,-0.0063,-35.4015781637612,149.11421625888823,667.6170,0.0000,-1.3289,-0.2187,-0.0158
2024-09-29T22:49:07.321Z,0.0032,0.1935,-1.0220,0.0338,0.0055,0.0806,0.0095,0.0046,-0.0063,-35.4015781637612,149.11421625888823,667.6170,0.0000,-1.3289,-0.2187,-0.0159
2024-09-29T22:49:07.331Z,-0.0009,0.2190,-0.9798,0.0338,0.0055,0.0806,0.0030,0.0062,-0.0074,-35.4015781637612,149.11421625888823,667.6170,0.0000,-1.3289,-0.2188,-0.0159
2024-09-29T22:49:07.341Z,-0.0219,0.2327,-0.9137,0.0338,0.0055,0.0806,0.0208,-0.0003,-0.0043,-35.4015781637612,149.11421625888823,667.6170,0.0000,-1.3289,-0.2187,-0.0158
2024-09-29T22:49:07.355Z,-0.0351,0.2003,-0.9916,0.0338,0.0055,0.0806,0.0017,0.0072,-0.0039,-35.4015781637612,149.11421625888823,667.6170,0.0000,-1.3289,-0.2187,-0.0159
2024-09-29T22:49:07.360Z,0.0028,0.1871,-1.0254,0.0338,0.0055,0.0806,-0.0017,0.0084,-0.0130,-35.4015781637612,149.11421625888823,667.6170,0.0000,-1.3289,-0.2187,-0.0159
2024-09-29T22:49:07.371Z,-0.0027,0.2227,-0.9577,0.0338,0.0055,0.0806,0.0181,-0.0078,-0.0112,-35.4015781637612,149.11421625888823,667.6170,0.0000,-1.3289,-0.2188,-0.0158
2024-09-29T22:49:07.381Z,-0.0318,0.2198,-0.9254,0.0338,0.0055,0.0806,0.0190,-0.0042,-0.0040,-35.4015781637612,149.11421625888823,667.6170,0.0000,-1.3289,-0.2187,-0.0158
2024-09-29T22:49:07.391Z,-0.0202,0.1913,-0.9985,0.0338,0.0055,0.0806,0.0012,0.0102,-0.0102,-35.4015781637612,149.11421625888823,667.6170,0.0000,-1.3289,-0.2187,-0.0159
2024-09-29T22:49:07.403Z,0.0093,0.1899,-1.0098,0.0338,0.0055,0.0806,-0.0017,0.0161,-0.0106,-35.4015781637612,149.11421625888823,667.6170,0.0000,-1.3289,-0.2188,-0.0158
2024-09-29T22:49:07.410Z,-0.0098,0.2233,-0.9411,0.0338,0.0055,0.0806,0.0163,0.0004,-0.0054,-35.4015781637612,149.11421625888823,667.6170,0.0000,-1.3289,-0.2188,-0.0158
2024-09-29T22:49:07.422Z,-0.0439,0.2050,-0.9509,0.0338,0.0055,0.0806,0.0163,0.0004,-0.0054,-35.4015781637612,149.11421625888823,667.6170,0.0000,-1.3289,-0.2187,-0.0159
2024-09-29T22:49:07.431Z,-0.0095,0.1832,-1.0034,0.0338,0.0055,0.0806,-0.0031,0.0066,-0.0112,-35.4015781637612,149.11421625888823,667.6170,0.0000,-1.3289,-0.2187,-0.0159
2024-09-29T22:49:07.441Z,0.0024,0.1969,-1.0014,0.0338,0.0055,0.0806,-0.0039,0.0135,-0.0079,-35.4015781637612,149.11421625888823,667.6170,0.0000,-1.3289,-0.2187,-0.0159
2024-09-29T22:49:07.454Z,-0.0144,0.2199,-0.9281,0.0338,0.0055,0.0806,0.0132,0.0130,-0.0008,-35.4015781637612,149.11421625888823,667.6170,0.0000,-1.3289,-0.2187,-0.0159
2024-09-29T22:49:07.460Z,-0.0406,0.1967,-0.9683,0.0338,0.0055,0.0806,0.0082,0.0051,-0.0024,-35.4015781637612,149.11421625888823,667.6170,0.0000,-1.3289,-0.2187,-0.0159
2024-09-29T22:49:07.471Z,0.0140,0.1779,-1.0146,0.0338,0.0055,0.0806,-0.0044,0.0161,-0.0086,-35.4015781637612,149.11421625888823,667.6170,0.0000,-1.3289,-0.2187,-0.0159
2024-09-29T22:49:07.481Z,-0.0001,0.2102,-0.9920,0.0338,0.0055,0.0806,0.0037,0.0003,-0.0096,-35.4015781637612,149.11421625888823,667.6170,0.0000,-1.3289,-0.2188,-0.0159
2024-09-29T22:49:07.491Z,-0.0306,0.2180,-0.9302,0.0338,0.0055,0.0806,0.0186,-0.0055,-0.0008,-35.4015781637612,149.11421625888823,667.6170,0.0000,-1.3289,-0.2187,-0.0158
2024-09-29T22:49:07.504Z,-0.0401,0.1965,-0.9882,0.0338,0.0055,0.0806,0.0050,0.0066,-0.0077,-35.4015781637612,149.11421625888823,667.6170,0.0000,-1.3289,-0.2187,-0.0159
2024-09-29T22:49:07.510Z,0.0036,0.1928,-1.0146,0.0338,0.0055,0.0806,0.0021,0.0146,-0.0086,-35.4015781637612,149.11421625888823,667.6170,0.0000,-1.3289,-0.2187,-0.0159
2024-09-29T22:49:07.521Z,-0.0106,0.2254,-0.9558,0.0338,0.0055,0.0806,0.0200,-0.0036,-0.0046,-35.4015781637612,149.11421625888823,667.6170,0.0000,-1.3290,-0.2188,-0.0159
2024-09-29T22:49:07.531Z,-0.0388,0.2154,-0.9441,0.0338,0.0055,0.0806,0.0081,0.0066,-0.0071,-35.4015781637612,149.11421625888823,667.6170,0.0000,-1.3290,-0.2187,-0.0159
2024-09-29T22:49:07.541Z,-0.0163,0.1999,-1.0068,0.0338,0.0055,0.0806,-0.0065,0.0185,-0.0080,-35.4015781637612,149.11421625888823,667.6170,0.0000,-1.3289,-0.2187,-0.0160
2024-09-29T22:49:07.553Z,0.0161,0.2093,-1.0056,0.0338,0.0055,0.0806,-0.0026,0.0121,-0.0080,-35.4015781637612,149.11421625888823,667.6170,0.0000,-1.3289,-0.2187,-0.0160
2024-09-29T22:49:07.561Z,-0.0135,0.2370,-0.9331,0.0338,0.0055,0.0806,0.0097,0.0094,-0.0024,-35.4015781637612,149.11421625888823,667.6170,0.0000,-1.3290,-0.2187,-0.0159
2024-09-29T22:49:07.573Z,-0.0135,0.2370,-0.9331,0.0338,0.0055,0.0806,0.0028,0.0019,-0.0028,-35.4015781637612,149.11421625888823,667.6170,0.0000,-1.3289,-0.2187,-0.0159
2024-09-29T22:49:07.581Z,-0.0101,0.2095,-1.0039,0.0338,0.0055,0.0806,-0.0117,0.0134,-0.0072,-35.401472132686074,149.11440929411827,667.8228,0.0000,-1.3289,-0.2187,-0.0159
2024-09-29T22:49:07.591Z,0.0018,0.2268,-0.9823,0.0338,0.0055,0.0806,-0.0018,0.0146,-0.0087,-35.401472132686074,149.11440929411827,667.8228,0.0000,-1.3289,-0.2187,-0.0159
2024-09-29T22:49:07.603Z,-0.0157,0.2401,-0.9287,0.0338,0.0055,0.0806,0.0104,0.0099,-0.0027,-35.401472132686074,149.11440929411827,667.8228,0.0000,-1.3290,-0.2187,-0.0158
2024-09-29T22:49:07.611Z,-0.0396,0.2215,-0.9875,0.0338,0.0055,0.0806,0.0045,0.0105,-0.0039,-35.401472132686074,149.11440929411827,667.8228,0.0000,-1.3289,-0.2187,-0.0158
2024-09-29T22:49:07.622Z,-0.0396,0.2215,-0.9875,0.0338,0.0055,0.0806,0.0045,0.0105,-0.0039,-35.401472132686074,149.11440929411827,667.8228,0.0000,-1.3289,-0.2187,-0.0159
2024-09-29T22:49:07.631Z,0.0089,0.2263,-0.9601,0.0338,0.0055,0.0806,0.0154,-0.0001,-0.0070,-35.401472132686074,149.11440929411827,667.8228,0.0000,-1.3289,-0.2188,-0.0159
2024-09-29T22:49:07.641Z,-0.0431,0.2465,-0.9328,0.0338,0.0055,0.0806,0.0128,-0.0006,-0.0057,-35.401472132686074,149.11440929411827,667.8228,0.0000,-1.3289,-0.2188,-0.0159
2024-09-29T22:49:07.653Z,-0.0417,0.2103,-0.9907,0.0338,0.0055,0.0806,-0.0041,0.0094,-0.0098,-35.401472132686074,149.11440929411827,667.8228,0.0000,-1.3289,-0.2188,-0.0159
2024-09-29T22:49:07.661Z,0.0350,0.2107,-1.0083,0.0338,0.0055,0.0806,0.0007,-0.0005,-0.0089,-35.401472132686074,149.11440929411827,667.8228,0.0000,-1.3289,-0.2188,-0.0159
2024-09-29T22:49:07.672Z,0.0350,0.2107,-1.0083,0.0338,0.0055,0.0806,0.0007,-0.0005,-0.0089,-35.401472132686074,149.11440929411827,667.8228,0.0000,-1.3289,-0.2189,-0.0158
2024-09-29T22:49:07.681Z,-0.0331,0.2318,-0.9531,0.0338,0.0055,0.0806,0.0289,-0.0099,-0.0091,-35.401472132686074,149.11440929411827,667.8228,0.0000,-1.3289,-0.2189,-0.0157
2024-09-29T22:49:07.691Z,-0.0099,0.2052,-1.0091,0.0338,0.0055,0.0806,-0.0050,0.0099,-0.0082,-35.401472132686074,149.11440929411827,667.8228,0.0000,-1.3289,-0.2189,-0.0158
2024-09-29T22:49:07.703Z,0.0143,0.2272,-0.9912,0.0338,0.0055,0.0806,0.0015,0.0156,-0.0084,-35.401472132686074,149.11440929411827,667.8228,0.0000,-1.3289,-0.2190,-0.0158
2024-09-29T22:49:07.710Z,-0.0120,0.2344,-0.9250,0.0338,0.0055,0.0806,0.0245,-0.0002,-0.0041,-35.401472132686074,149.11440929411827,667.8228,0.0000,-1.3289,-0.2190,-0.0158
2024-09-29T22:49:07.722Z,-0.0120,0.2344,-0.9250,0.0338,0.0055,0.0806,0.0116,0.0015,-0.0051,-35.401472132686074,149.11440929411827,667.8228,0.0000,-1.3289,-0.2189,-0.0158
2024-09-29T22:49:07.731Z,-0.0102,0.2042,-1.0055,0.0338,0.0055,0.0806,-0.0012,0.0086,-0.0100,-35.401472132686074,149.11440929411827,667.8228,0.0000,-1.3289,-0.2189,-0.0159
2024-09-29T22:49:07.741Z,0.0078,0.2313,-0.9765,0.0338,0.0055,0.0806,0.0121,-0.0035,-0.0088,-35.401472132686074,149.11440929411827,667.8228,0.0000,-1.3289,-0.2190,-0.0159
2024-09-29T22:49:07.751Z,-0.0106,0.2361,-0.9262,0.0338,0.0055,0.0806,0.0258,-0.0106,-0.0060,-35.401472132686074,149.11440929411827,667.8228,0.0000,-1.3289,-0.2189,-0.0158
2024-09-29T22:49:07.761Z,-0.0328,0.2121,-0.9874,0.0338,0.0055,0.0806,0.0101,0.0073,-0.0050,-35.401472132686074,149.11440929411827,667.8228,0.0000,-1.3289,-0.2189,-0.0158
2024-09-29T22:49:07.772Z,0.0074,0.2043,-1.0009,0.0338,0.0055,0.0806,-0.0046,0.0194,-0.0110,-35.401472132686074,149.11440929411827,667.8228,0.0000,-1.3289,-0.2190,-0.0159
2024-09-29T22:49:07.781Z,0.0052,0.2317,-0.9541,0.0338,0.0055,0.0806,0.0121,-0.0004,-0.0033,-35.401472132686074,149.11440929411827,667.8228,0.0000,-1.3289,-0.2190,-0.0159
2024-09-29T22:49:07.791Z,-0.0307,0.2333,-0.9455,0.0338,0.0055,0.0806,0.0115,-0.0040,-0.0038,-35.401472132686074,149.11440929411827,667.8228,0.0000,-1.3289,-0.2190,-0.0159
2024-09-29T22:49:07.801Z,-0.0293,0.2121,-0.9928,0.0338,0.0055,0.0806,0.0009,0.0078,-0.0100,-35.401472132686074,149.11440929411827,667.8228,0.0000,-1.3288,-0.2190,-0.0159
2024-09-29T22:49:07.811Z,-0.0017,0.2124,-0.9904,0.0338,0.0055,0.0806,0.0121,0.0000,-0.0041,-35.401472132686074,149.11440929411827,667.8228,0.0000,-1.3289,-0.2190,-0.0160
2024-09-29T22:49:07.823Z,-0.0017,0.2124,-0.9904,0.0338,0.0055,0.0806,0.0221,-0.0155,-0.0120,-35.401472132686074,149.11440929411827,667.8228,0.0000,-1.3289,-0.2190,-0.0159
2024-09-29T22:49:07.831Z,-0.0429,0.2224,-0.9542,0.0338,0.0055,0.0806,0.0067,0.0095,-0.0057,-35.401472132686074,149.11440929411827,667.8228,0.0000,-1.3289,-0.2190,-0.0158
2024-09-29T22:49:07.841Z,-0.0180,0.2051,-0.9975,0.0338,0.0055,0.0806,-0.0015,0.0147,-0.0038,-35.401472132686074,149.11440929411827,667.8228,0.0000,-1.3288,-0.2190,-0.0158
2024-09-29T22:49:07.851Z,0.0034,0.2221,-0.9907,0.0338,0.0055,0.0806,0.0044,0.0111,-0.0103,-35.401472132686074,149.11440929411827,667.8228,0.0000,-1.3288,-0.2191,-0.0158
2024-09-29T22:49:07.861Z,-0.0148,0.2426,-0.9360,0.0338,0.0055,0.0806,0.0106,0.0096,-0.0011,-35.401472132686074,149.11440929411827,667.8228,0.0000,-1.3288,-0.2191,-0.0158
2024-09-29T22:49:07.873Z,-0.0148,0.2426,-0.9360,0.0338,0.0055,0.0806,0.0090,0.0005,-0.0066,-35.401472132686074,149.11440929411827,667.8228,0.0000,-1.3288,-0.2190,-0.0159
2024-09-29T22:49:07.880Z,-0.0011,0.2044,-1.0017,0.0338,0.0055,0.0806,-0.0006,0.0101,-0.0121,-35.401472132686074,149.11440929411827,667.8228,0.0000,-1.3288,-0.2191,-0.0159
2024-09-29T22:49:07.890Z,-0.0015,0.2330,-0.9794,0.0338,0.0055,0.0806,0.0058,0.0068,-0.0044,-35.401472132686074,149.11440929411827,667.8228,0.0000,-1.3288,-0.2191,-0.0159
2024-09-29T22:49:07.901Z,-0.0214,0.2356,-0.9362,0.0338,0.0055,0.0806,0.0174,-0.0106,-0.0089,-35.401472132686074,149.11440929411827,667.8228,0.0000,-1.3288,-0.2191,-0.0159
2024-09-29T22:49:07.911Z,-0.0399,0.2097,-0.9899,0.0338,0.0055,0.0806,0.0079,0.0064,-0.0066,-35.401472132686074,149.11440929411827,667.8228,0.0000,-1.3288,-0.2191,-0.0158
2024-09-29T22:49:07.922Z,-0.0399,0.2097,-0.9899,0.0338,0.0055,0.0806,0.0017,0.0156,-0.0083,-35.401472132686074,149.11440929411827,667.8228,0.0000,-1.3288,-0.2191,-0.0159
2024-09-29T22:49:07.931Z,-0.0086,0.2400,-0.9620,0.0338,0.0055,0.0806,0.0166,-0.0046,-0.0137,-35.401472132686074,149.11440929411827,667.8228,0.0000,-1.3288,-0.2192,-0.0159
2024-09-29T22:49:07.941Z,-0.0086,0.2400,-0.9620,0.0338,0.0055,0.0806,0.0133,0.0138,0.0009,-35.401472132686074,149.11440929411827,667.8228,0.0000,-1.3288,-0.2192,-0.0158
2024-09-29T22:49:07.951Z,-0.0303,0.2047,-0.9906,0.0338,0.0055,0.0806,-0.0003,0.0171,-0.0088,-35.401472132686074,149.11440929411827,667.8228,0.0000,-1.3288,-0.2192,-0.0159
2024-09-29T22:49:07.960Z,-0.0303,0.2047,-0.9906,0.0338,0.0055,0.0806,0.0016,0.0081,-0.0103,-35.401472132686074,149.11440929411827,667.8228,0.0000,-1.3288,-0.2193,-0.0160
2024-09-29T22:49:07.973Z,0.0099,0.2117,-1.0000,0.0338,0.0055,0.0806,0.0145,-0.0035,-0.0014,-35.401472132686074,149.11440929411827,667.8228,0.0000,-1.3288,-0.2193,-0.0159
2024-09-29T22:49:07.980Z,-0.0401,0.2178,-0.9586,0.0338,0.0055,0.0806,0.0094,-0.0037,-0.0094,-35.401472132686074,149.11440929411827,667.8228,0.0000,-1.3288,-0.2192,-0.0159
2024-09-29T22:49:07.991Z,-0.0401,0.2178,-0.9586,0.0338,0.0055,0.0806,-0.0012,0.0194,-0.0044,-35.401472132686074,149.11440929411827,667.8228,0.0000,-1.3288,-0.2192,-0.0158
2024-09-29T22:49:08.001Z,0.0062,0.2207,-0.9917,0.0338,0.0055,0.0806,0.0045,0.0069,-0.0094,-35.401472132686074,149.11440929411827,667.8228,0.0000,-1.3288,-0.2193,-0.0158
2024-09-29T22:49:08.011Z,-0.0138,0.2430,-0.9321,0.0338,0.0055,0.0806,0.0156,0.0039,-0.0058,-35.401472132686074,149.11440929411827,667.8228,0.0000,-1.3288,-0.2192,-0.0157
2024-09-29T22:49:08.022Z,-0.0138,0.2430,-0.9321,0.0338,0.0055,0.0806,0.0082,0.0201,0.0018,-35.401472132686074,149.11440929411827,667.8228,0.0000,-1.3288,-0.2192,-0.0158
2024-09-29T22:49:08.030Z,-0.0408,0.2082,-0.9769,0.0338,0.0055,0.0806,0.0082,0.0201,0.0018,-35.401472132686074,149.11440929411827,667.8228,0.0000,-1.3288,-0.2193,-0.0159
2024-09-29T22:49:08.041Z,0.0036,0.2028,-1.0089,0.0338,0.0055,0.0806,-0.0002,0.0163,-0.0136,-35.401472132686074,149.11440929411827,667.8228,0.0000,-1.3288,-0.2193,-0.0159
2024-09-29T22:49:08.051Z,-0.0208,0.2341,-0.9329,0.0338,0.0055,0.0806,0.0101,-0.0010,-0.0028,-35.401472132686074,149.11440929411827,667.8228,0.0000,-1.3288,-0.2193,-0.0159
2024-09-29T22:49:08.061Z,-0.0292,0.2008,-0.9860,0.0338,0.0055,0.0806,-0.0030,0.0038,-0.0118,-35.401472132686074,149.11440929411827,667.8228,0.0000,-1.3288,-0.2192,-0.0158
2024-09-29T22:49:08.074Z,-0.0292,0.2008,-0.9860,0.0338,0.0055,0.0806,-0.0011,0.0190,-0.0015,-35.401472132686074,149.11440929411827,667.8228,0.0000,-1.3287,-0.2192,-0.0157
2024-09-29T22:49:08.081Z,-0.0037,0.2358,-0.9524,0.0338,0.0055,0.0806,0.0187,-0.0031,-0.0064,-35.401472132686074,149.11440929411827,667.8228,0.0000,-1.3288,-0.2192,-0.0156
2024-09-29T22:49:08.091Z,-0.0309,0.2238,-0.9553,0.0338,0.0055,0.0806,0.0072,0.0120,-0.0025,-35.401472132686074,149.11440929411827,667.8228,0.0000,-1.3287,-0.2192,-0.0157
2024-09-29T22:49:08.101Z,-0.0309,0.2238,-0.9553,0.0338,0.0055,0.0806,-0.0032,0.0171,-0.0039,-35.401472132686074,149.11440929411827,667.8228,0.0000,-1.3287,-0.2192,-0.0158
2024-09-29T22:49:08.111Z,0.0045,0.2127,-0.9960,0.0338,0.0055,0.0806,0.0075,0.0027,-0.0099,-35.401472132686074,149.11440929411827,667.8228,0.0000,-1.3287,-0.2193,-0.0158
2024-09-29T22:49:08.122Z,0.0045,0.2127,-0.9960,0.0338,0.0055,0.0806,0.0151,0.0006,-0.0006,-35.401472132686074,149.11440929411827,667.8228,0.0000,-1.3287,-0.2193,-0.0158
2024-09-29T22:49:08.131Z,-0.0091,0.2407,-0.9378,0.0338,0.0055,0.0806,0.0114,-0.0098,-0.0057,-35.401472132686074,149.11440929411827,667.8228,0.0000,-1.3287,-0.2192,-0.0158
2024-09-29T22:49:08.140Z,-0.0403,0.2165,-0.9674,0.0338,0.0055,0.0806,0.0114,-0.0098,-0.0057,-35.401472132686074,149.11440929411827,667.8228,0.0000,-1.3286,-0.2192,-0.0158
2024-09-29T22:49:08.151Z,0.0036,0.2228,-0.9918,0.0338,0.0055,0.0806,0.0029,0.0070,-0.0057,-35.401472132686074,149.11440929411827,667.8228,0.0000,-1.3287,-0.2192,-0.0158
2024-09-29T22:49:08.161Z,-0.0204,0.2368,-0.9334,0.0338,0.0055,0.0806,0.0185,-0.0030,-0.0039,-35.401472132686074,149.11440929411827,667.8228,0.0000,-1.3287,-0.2192,-0.0158
2024-09-29T22:49:08.172Z,-0.0204,0.2368,-0.9334,0.0338,0.0055,0.0806,0.0041,0.0142,-0.0025,-35.401472132686074,149.11440929411827,667.8228,0.0000,-1.3286,-0.2192,-0.0158
2024-09-29T22:49:08.181Z,0.0047,0.2045,-1.0042,0.0338,0.0055,0.0806,-0.0016,0.0084,-0.0123,-35.401472132686074,149.11440929411827,667.8228,0.0000,-1.3286,-0.2192,-0.0159
2024-09-29T22:49:08.191Z,-0.0068,0.2309,-0.9655,0.0338,0.0055,0.0806,0.0121,-0.0028,-0.0101,-35.401472132686074,149.11440929411827,667.8228,0.0000,-1.3286,-0.2193,-0.0159
2024-09-29T22:49:08.201Z,-0.0304,0.2306,-0.9417,0.0338,0.0055,0.0806,0.0121,-0.0028,-0.0101,-35.401472132686074,149.11440929411827,667.8228,0.0000,-1.3286,-0.2192,-0.0159
2024-09-29T22:49:08.210Z,-0.0304,0.2306,-0.9417,0.0338,0.0055,0.0806,0.0071,0.0022,0.0005,-35.401472132686074,149.11440929411827,667.8228,0.0000,-1.3286,-0.2192,-0.0159
2024-09-29T22:49:08.222Z,-0.0212,0.2111,-0.9954,0.0338,0.0055,0.0806,0.0054,0.0090,-0.0071,-35.401472132686074,149.11440929411827,667.8228,0.0000,-1.3286,-0.2192,-0.0160
2024-09-29T22:49:08.230Z,0.0118,0.2052,-0.9942,0.0338,0.0055,0.0806,0.0054,0.0090,-0.0071,-35.401472132686074,149.11440929411827,667.8228,0.0000,-1.3286,-0.2192,-0.0159
2024-09-29T22:49:08.241Z,-0.0444,0.2257,-0.9563,0.0338,0.0055,0.0806,0.0091,0.0050,-0.0085,-35.401472132686074,149.11440929411827,667.8228,0.0000,-1.3286,-0.2192,-0.0159
2024-09-29T22:49:08.250Z,-0.0444,0.2257,-0.9563,0.0338,0.0055,0.0806,0.0091,0.0050,-0.0085,-35.401472132686074,149.11440929411827,667.8228,0.0000,-1.3286,-0.2192,-0.0160
2024-09-29T22:49:08.260Z,-0.0222,0.2113,-0.9857,0.0338,0.0055,0.0806,0.0069,0.0135,-0.0031,-35.401472132686074,149.11440929411827,667.8228,0.0000,-1.3286,-0.2192,-0.0161
2024-09-29T22:49:08.273Z,0.0038,0.2249,-0.9982,0.0338,0.0055,0.0806,-0.0061,0.0057,-0.0082,-35.401472132686074,149.11440929411827,667.8228,0.0000,-1.3286,-0.2192,-0.0161
2024-09-29T22:49:08.281Z,-0.0061,0.2773,-0.9666,0.0338,0.0055,0.0806,-0.0061,0.0057,-0.0082,-35.401472132686074,149.11440929411827,667.8228,0.0000,-1.3286,-0.2194,-0.0161
2024-09-29T22:49:08.292Z,-0.0091,0.3387,-0.9035,0.0338,0.0055,0.0806,-0.0038,-0.0168,-0.0168,-35.401472132686074,149.11440929411827,667.8228,0.0000,-1.3287,-0.2195,-0.0162
2024-09-29T22:49:08.300Z,-0.0091,0.3387,-0.9035,0.0338,0.0055,0.0806,-0.0038,-0.0168,-0.0168,-35.401472132686074,149.11440929411827,667.8228,0.0000,-1.3287,-0.2195,-0.0162
2024-09-29T22:49:08.310Z,0.0153,0.3349,-0.9630,0.0338,0.0055,0.0806,-0.0049,0.0093,-0.0009,-35.401472132686074,149.11440929411827,667.8228,0.0000,-1.3287,-0.2197,-0.0164
2024-09-29T22:49:08.322Z,0.0342,0.3366,-0.9633,0.0338,0.0055,0.0806,-0.0123,-0.0104,-0.0078,-35.401472132686074,149.11440929411827,667.8228,0.0000,-1.3287,-0.2196,-0.0165
2024-09-29T22:49:08.331Z,-0.0104,0.3138,-1.0288,0.0338,0.0055,0.0806,-0.0123,-0.0104,-0.0078,-35.401472132686074,149.11440929411827,667.8228,0.0000,-1.3287,-0.2197,-0.0167
2024-09-29T22:49:08.341Z,0.0086,0.2784,-1.0393,0.0338,0.0055,0.0806,-0.0283,-0.0065,-0.0044,-35.401472132686074,149.11440929411827,667.8228,0.0000,-1.3287,-0.2200,-0.0169
2024-09-29T22:49:08.351Z,0.0238,0.2817,-0.9304,0.0338,0.0055,0.0806,-0.0007,-0.0185,-0.0095,-35.401472132686074,149.11440929411827,667.8228,0.0000,-1.3288,-0.2202,-0.0170
2024-09-29T22:49:08.361Z,0.0324,0.2932,-0.8354,0.0338,0.0055,0.0806,0.0372,-0.0339,0.0014,-35.401472132686074,149.11440929411827,667.8228,0.0000,-1.3287,-0.2201,-0.0173
2024-09-29T22:49:08.373Z,-0.0140,0.2361,-1.0065,0.0338,0.0055,0.0806,-0.0375,0.0103,-0.0124,-35.401472132686074,149.11440929411827,667.8228,0.0000,-1.3286,-0.2200,-0.0176
2024-09-29T22:49:08.380Z,-0.0497,0.2494,-1.1697,0.0338,0.0055,0.0806,-0.0375,0.0103,-0.0124,-35.401472132686074,149.11440929411827,667.8228,0.0000,-1.3286,-0.2204,-0.0175
2024-09-29T22:49:08.391Z,-0.0500,0.1962,-0.9377,0.0338,0.0055,0.0806,0.0054,-0.0022,-0.0066,-35.401472132686074,149.11440929411827,667.8228,0.0000,-1.3286,-0.2206,-0.0175
2024-09-29T22:49:08.401Z,-0.0445,0.2895,-0.7473,0.0338,0.0055,0.0806,0.0281,-0.0127,-0.0058,-35.401472132686074,149.11440929411827,667.8228,0.0000,-1.3286,-0.2204,-0.0176
2024-09-29T22:49:08.411Z,-0.0763,0.3095,-0.9077,0.0338,0.0055,0.0806,0.0159,0.0015,-0.0039,-35.401472132686074,149.11440929411827,667.8228,0.0000,-1.3285,-0.2204,-0.0176
2024-09-29T22:49:08.423Z,-0.0612,0.2395,-1.0577,0.0338,0.0055,0.0806,0.0025,0.0059,-0.0128,-35.401472132686074,149.11440929411827,667.8228,0.0000,-1.3286,-0.2205,-0.0176
2024-09-29T22:49:08.430Z,0.0094,0.2369,-0.9930,0.0338,0.0055,0.0806,0.0025,0.0059,-0.0128,-35.401472132686074,149.11440929411827,667.8228,0.0000,-1.3286,-0.2206,-0.0174
2024-09-29T22:49:08.442Z,0.0123,0.2841,-0.8900,0.0338,0.0055,0.0806,0.0135,-0.0002,-0.0058,-35.401472132686074,149.11440929411827,667.8228,0.0000,-1.3286,-0.2206,-0.0174
2024-09-29T22:49:08.451Z,-0.0072,0.3125,-0.9558,0.0338,0.0055,0.0806,0.0135,-0.0002,-0.0058,-35.401472132686074,149.11440929411827,667.8228,0.0000,-1.3286,-0.2205,-0.0175
2024-09-29T22:49:08.461Z,-0.0175,0.2831,-1.0136,0.0338,0.0055,0.0806,0.0072,0.0040,-0.0108,-35.401472132686074,149.11440929411827,667.8228,0.0000,-1.3286,-0.2205,-0.0175
2024-09-29T22:49:08.475Z,0.0271,0.3208,-0.9556,0.0338,0.0055,0.0806,0.0051,0.0084,-0.0071,-35.401472132686074,149.11440929411827,667.8228,0.0000,-1.3287,-0.2206,-0.0175
2024-09-29T22:49:08.480Z,0.0271,0.3208,-0.9556,0.0338,0.0055,0.0806,0.0098,-0.0010,-0.0071,-35.401472132686074,149.11440929411827,667.8228,0.0000,-1.3287,-0.2206,-0.0176
2024-09-29T22:49:08.491Z,-0.0395,0.2989,-0.9531,0.0338,0.0055,0.0806,0.0178,-0.0010,-0.0028,-35.401472132686074,149.11440929411827,667.8228,0.0000,-1.3287,-0.2205,-0.0178
2024-09-29T22:49:08.501Z,-0.0543,0.2711,-0.9807,0.0338,0.0055,0.0806,0.0031,-0.0015,-0.0054,-35.401472132686074,149.11440929411827,667.8228,0.0000,-1.3287,-0.2205,-0.0179
2024-09-29T22:49:08.515Z,-0.0154,0.2300,-0.9781,0.0338,0.0055,0.0806,0.0029,-0.0029,-0.0136,-35.401472132686074,149.11440929411827,667.8228,0.0000,-1.3287,-0.2205,-0.0179
2024-09-29T22:49:08.523Z,-0.0271,0.2654,-0.9364,0.0338,0.0055,0.0806,0.0137,-0.0059,-0.0034,-35.401472132686074,149.11440929411827,667.8228,0.0000,-1.3287,-0.2206,-0.0180
2024-09-29T22:49:08.530Z,-0.0504,0.2632,-0.9167,0.0338,0.0055,0.0806,0.0137,-0.0059,-0.0034,-35.401472132686074,149.11440929411827,667.8228,0.0000,-1.3287,-0.2205,-0.0181
2024-09-29T22:49:08.541Z,-0.0383,0.2523,-0.9444,0.0338,0.0055,0.0806,0.0075,0.0052,-0.0034,-35.401472132686074,149.11440929411827,667.8228,0.0000,-1.3287,-0.2205,-0.0182
2024-09-29T22:49:08.551Z,0.0111,0.2525,-0.9773,0.0338,0.0055,0.0806,0.0068,0.0024,-0.0132,-35.401472132686074,149.11440929411827,667.8228,0.0000,-1.3287,-0.2206,-0.0182
2024-09-29T22:49:08.561Z,0.0014,0.2982,-0.9478,0.0338,0.0055,0.0806,0.0142,-0.0104,-0.0088,-35.401472132686074,149.11440929411827,667.8228,0.0000,-1.3287,-0.2207,-0.0182
