time,gFx,gFy,gFz,ax,ay,az,wx,wy,wz,latitude,longitude,altitude,speed,yaw,pitch,roll
2024-09-29T08:30:02.315Z,0.0330,0.2142,-0.9785,0.0338,0.0055,0.0806,0.0023,-0.0000,-0.0117,-35.365362810004015,149.09506469978865,618.6759,0.0000,0.3558,-0.2259,0.0145
2024-09-29T08:30:02.321Z,-0.0037,0.2223,-0.9558,0.0338,0.0055,0.0806,0.0139,-0.0007,-0.0058,-35.365362810004015,149.09506469978865,618.6759,0.0000,0.3557,-0.2259,0.0142
2024-09-29T08:30:02.332Z,0.0052,0.2310,-0.9697,0.0338,0.0055,0.0806,0.0127,0.0238,-0.0050,-35.365362810004015,149.09506469978865,618.6759,0.0000,0.3557,-0.2259,0.0143
2024-09-29T08:30:02.342Z,0.0251,0.2139,-0.9944,0.0338,0.0055,0.0806,0.0023,0.0021,-0.0092,-35.365362810004015,149.09506469978865,618.6759,0.0000,0.3557,-0.2259,0.0144
2024-09-29T08:30:02.353Z,0.0190,0.2248,-0.9590,0.0338,0.0055,0.0806,0.0100,0.0099,-0.0010,-35.365362810004015,149.09506469978865,618.6759,0.0000,0.3557,-0.2259,0.0144
2024-09-29T08:30:02.362Z,-0.0096,0.2231,-0.9676,0.0338,0.0055,0.0806,0.0033,-0.0210,-0.0075,-35.365362810004015,149.09506469978865,618.6759,0.0000,0.3557,-0.2259,0.0142
2024-09-29T08:30:02.372Z,0.0221,0.2240,-0.9619,0.0338,0.0055,0.0806,0.0076,0.0286,-0.0075,-35.365362810004015,149.09506469978865,618.6759,0.0000,0.3558,-0.2259,0.0144
2024-09-29T08:30:02.382Z,0.0278,0.2135,-1.0063,0.0338,0.0055,0.0806,0.0094,0.0026,-0.0099,-35.365362810004015,149.09506469978865,618.6759,0.0000,0.3558,-0.2259,0.0144
2024-09-29T08:30:02.392Z,0.0123,0.2273,-0.9512,0.0338,0.0055,0.0806,0.0138,0.0059,-0.0024,-35.365362810004015,149.09506469978865,618.6759,0.0000,0.3558,-0.2259,0.0144
2024-09-29T08:30:02.403Z,-0.0141,0.2292,-0.9750,0.0338,0.0055,0.0806,-0.0022,0.0052,-0.0056,-35.365362810004015,149.09506469978865,618.6759,0.0000,0.3558,-0.2259,0.0144
2024-09-29T08:30:02.412Z,0.0260,0.2192,-0.9630,0.0338,0.0055,0.0806,0.0021,0.0001,-0.0086,-35.365362810004015,149.09506469978865,618.6759,0.0000,0.3558,-0.2259,0.0142
2024-09-29T08:30:02.422Z,0.0270,0.2174,-0.9992,0.0338,0.0055,0.0806,0.0057,-0.0105,-0.0079,-35.365362810004015,149.09506469978865,618.6759,0.0000,0.3557,-0.2259,0.0145
2024-09-29T08:30:02.432Z,0.0114,0.2234,-0.9512,0.0338,0.0055,0.0806,0.0123,0.0189,-0.0061,-35.365362810004015,149.09506469978865,618.6759,0.0000,0.3557,-0.2259,0.0145
2024-09-29T08:30:02.442Z,0.0024,0.2313,-0.9771,0.0338,0.0055,0.0806,0.0089,0.0069,-0.0042,-35.365362810004015,149.09506469978865,618.6759,0.0000,0.3558,-0.2259,0.0143
2024-09-29T08:30:02.455Z,0.0325,0.2144,-0.9808,0.0338,0.0055,0.0806,-0.0004,-0.0002,-0.0116,-35.365362810004015,149.09506469978865,618.6759,0.0000,0.3558,-0.2259,0.0143
2024-09-29T08:30:02.461Z,0.0225,0.2206,-0.9747,0.0338,0.0055,0.0806,0.0099,0.0037,-0.0053,-35.365362810004015,149.09506469978865,618.6759,0.0000,0.3558,-0.2258,0.0145
2024-09-29T08:30:02.472Z,-0.0098,0.2230,-0.9558,0.0338,0.0055,0.0806,0.0097,-0.0089,-0.0034,-35.365362810004015,149.09506469978865,618.6759,0.0000,0.3557,-0.2258,0.0142
2024-09-29T08:30:02.482Z,0.0076,0.2304,-0.9659,0.0338,0.0055,0.0806,0.0122,0.0283,-0.0058,-35.365362810004015,149.09506469978865,618.6759,0.0000,0.3557,-0.2258,0.0142
2024-09-29T08:30:02.492Z,0.0267,0.2135,-0.9973,0.0338,0.0055,0.0806,0.0031,0.0050,-0.0112,-35.365362810004015,149.09506469978865,618.6759,0.0000,0.3557,-0.2258,0.0143
2024-09-29T08:30:02.503Z,0.0213,0.2264,-0.9589,0.0338,0.0055,0.0806,0.0090,0.0160,-0.0016,-35.365362810004015,149.09506469978865,618.6759,0.0000,0.3557,-0.2258,0.0144
2024-09-29T08:30:02.512Z,-0.0072,0.2246,-0.9715,0.0338,0.0055,0.0806,-0.0005,-0.0212,-0.0048,-35.365362810004015,149.09506469978865,618.6759,0.0000,0.3557,-0.2258,0.0144
2024-09-29T08:30:02.522Z,0.0247,0.2233,-0.9622,0.0338,0.0055,0.0806,-0.0005,-0.0212,-0.0048,-35.365362810004015,149.09506469978865,618.6759,0.0000,0.3557,-0.2258,0.0143
2024-09-29T08:30:02.532Z,0.0266,0.2151,-1.0061,0.0338,0.0055,0.0806,0.0099,0.0028,-0.0070,-35.365362810004015,149.09506469978865,618.6759,0.0000,0.3557,-0.2258,0.0144
2024-09-29T08:30:02.542Z,0.0115,0.2265,-0.9490,0.0338,0.0055,0.0806,0.0177,0.0129,-0.0035,-35.365362810004015,149.09506469978865,618.6759,0.0000,0.3557,-0.2258,0.0145
2024-09-29T08:30:02.556Z,-0.0119,0.2317,-0.9785,0.0338,0.0055,0.0806,0.0020,0.0037,-0.0026,-35.365362810004015,149.09506469978865,618.6759,0.0000,0.3557,-0.2258,0.0144
2024-09-29T08:30:02.561Z,0.0268,0.2183,-0.9682,0.0338,0.0055,0.0806,0.0020,0.0037,-0.0026,-35.365362810004015,149.09506469978865,618.6759,0.0000,0.3557,-0.2258,0.0142
2024-09-29T08:30:02.572Z,0.0251,0.2189,-0.9947,0.0338,0.0055,0.0806,0.0077,-0.0151,-0.0080,-35.365362810004015,149.09506469978865,618.6759,0.0000,0.3557,-0.2258,0.0144
2024-09-29T08:30:02.582Z,0.0068,0.2225,-0.9521,0.0338,0.0055,0.0806,0.0106,0.0165,-0.0033,-35.365362810004015,149.09506469978865,618.6759,0.0000,0.3557,-0.2258,0.0144
2024-09-29T08:30:02.591Z,0.0050,0.2299,-0.9727,0.0338,0.0055,0.0806,0.0106,0.0165,-0.0033,-35.365362810004015,149.09506469978865,618.6759,0.0000,0.3557,-0.2257,0.0143
2024-09-29T08:30:02.605Z,0.0316,0.2132,-0.9850,0.0338,0.0055,0.0806,0.0021,0.0015,-0.0102,-35.365362810004015,149.09506469978865,618.6759,0.0000,0.3557,-0.2258,0.0143
2024-09-29T08:30:02.611Z,0.0235,0.2213,-0.9705,0.0338,0.0055,0.0806,0.0021,0.0015,-0.0102,-35.365362810004015,149.09506469978865,618.6759,0.0000,0.3558,-0.2257,0.0144
2024-09-29T08:30:02.622Z,-0.0074,0.2222,-0.9606,0.0338,0.0055,0.0806,0.0080,0.0089,-0.0051,-35.365362810004015,149.09506469978865,618.6759,0.0000,0.3558,-0.2258,0.0144
2024-09-29T08:30:02.632Z,0.0119,0.2296,-0.9653,0.0338,0.0055,0.0806,0.0097,-0.0210,-0.0048,-35.365362810004015,149.09506469978865,618.6759,0.0000,0.3558,-0.2258,0.0142
2024-09-29T08:30:02.642Z,0.0265,0.2132,-1.0008,0.0338,0.0055,0.0806,0.0112,0.0306,-0.0068,-35.365362810004015,149.09506469978865,618.6759,0.0000,0.3558,-0.2258,0.0143
2024-09-29T08:30:02.656Z,0.0192,0.2265,-0.9540,0.0338,0.0055,0.0806,0.0128,0.0096,0.0003,-35.365362810004015,149.09506469978865,618.6759,0.0000,0.3558,-0.2258,0.0144
2024-09-29T08:30:02.661Z,-0.0088,0.2259,-0.9715,0.0338,0.0055,0.0806,0.0128,0.0096,0.0003,-35.365362810004015,149.09506469978865,618.6759,0.0000,0.3558,-0.2258,0.0144
2024-09-29T08:30:02.672Z,0.0274,0.2211,-0.9611,0.0338,0.0055,0.0806,-0.0023,-0.0134,-0.0039,-35.365362810004015,149.09506469978865,618.6759,0.0000,0.3558,-0.2258,0.0142
2024-09-29T08:30:02.682Z,0.0272,0.2146,-1.0055,0.0338,0.0055,0.0806,0.0040,0.0176,-0.0063,-35.365362810004015,149.09506469978865,618.6759,0.0000,0.3558,-0.2258,0.0144
2024-09-29T08:30:02.692Z,0.0092,0.2262,-0.9507,0.0338,0.0055,0.0806,0.0095,-0.0094,-0.0074,-35.365362810004015,149.09506469978865,618.6759,0.0000,0.3558,-0.2258,0.0144
2024-09-29T08:30:02.705Z,-0.0115,0.2328,-0.9760,0.0338,0.0055,0.0806,0.0156,0.0224,-0.0029,-35.365362810004015,149.09506469978865,618.6759,0.0000,0.3558,-0.2257,0.0143
2024-09-29T08:30:02.711Z,0.0265,0.2175,-0.9689,0.0338,0.0055,0.0806,0.0047,0.0109,-0.0051,-35.365362810004015,149.09506469978865,618.6759,0.0000,0.3558,-0.2258,0.0142
2024-09-29T08:30:02.722Z,0.0246,0.2195,-0.9896,0.0338,0.0055,0.0806,0.0017,-0.0022,-0.0101,-35.365362810004015,149.09506469978865,618.6759,0.0000,0.3558,-0.2257,0.0144
2024-09-29T08:30:02.732Z,0.0051,0.2223,-0.9533,0.0338,0.0055,0.0806,0.0073,-0.0039,-0.0086,-35.365362810004015,149.09506469978865,618.6759,0.0000,0.3558,-0.2258,0.0144
2024-09-29T08:30:02.741Z,0.0082,0.2311,-0.9733,0.0338,0.0055,0.0806,0.0121,0.0068,-0.0053,-35.365362810004015,149.09506469978865,618.6759,0.0000,0.3558,-0.2257,0.0142
2024-09-29T08:30:02.755Z,0.0334,0.2128,-0.9923,0.0338,0.0055,0.0806,0.0122,0.0158,-0.0054,-35.365362810004015,149.09506469978865,618.6759,0.0000,0.3558,-0.2258,0.0143
2024-09-29T08:30:02.761Z,0.0208,0.2225,-0.9667,0.0338,0.0055,0.0806,0.0029,0.0039,-0.0092,-35.365362810004015,149.09506469978865,618.6759,0.0000,0.3558,-0.2257,0.0144
2024-09-29T08:30:02.772Z,-0.0122,0.2244,-0.9626,0.0338,0.0055,0.0806,0.0088,0.0140,-0.0045,-35.365362810004015,149.09506469978865,618.6759,0.0000,0.3558,-0.2257,0.0144
2024-09-29T08:30:02.782Z,0.0119,0.2288,-0.9615,0.0338,0.0055,0.0806,0.0073,-0.0228,-0.0076,-35.365362810004015,149.09506469978865,618.6759,0.0000,0.3558,-0.2258,0.0142
2024-09-29T08:30:02.791Z,0.0247,0.2134,-1.0022,0.0338,0.0055,0.0806,0.0091,0.0313,-0.0056,-35.365362810004015,149.09506469978865,618.6759,0.0000,0.3558,-0.2258,0.0143
2024-09-29T08:30:02.806Z,0.0180,0.2264,-0.9538,0.0338,0.0055,0.0806,0.0067,0.0071,-0.0134,-35.365362810004015,149.09506469978865,618.6759,0.0000,0.3558,-0.2257,0.0144
2024-09-29T08:30:02.811Z,-0.0094,0.2270,-0.9731,0.0338,0.0055,0.0806,0.0105,0.0109,-0.0037,-35.365362810004015,149.09506469978865,618.6759,0.0000,0.3558,-0.2257,0.0144
2024-09-29T08:30:02.822Z,0.0269,0.2191,-0.9629,0.0338,0.0055,0.0806,-0.0008,-0.0142,-0.0062,-35.365362810004015,149.09506469978865,618.6759,0.0000,0.3558,-0.2258,0.0142
2024-09-29T08:30:02.831Z,0.0266,0.2144,-1.0035,0.0338,0.0055,0.0806,0.0010,0.0114,-0.0052,-35.365362810004015,149.09506469978865,618.6759,0.0000,0.3558,-0.2257,0.0144
2024-09-29T08:30:02.841Z,0.0078,0.2245,-0.9478,0.0338,0.0055,0.0806,0.0102,-0.0077,-0.0089,-35.365362810004015,149.09506469978865,618.6759,0.0000,0.3558,-0.2257,0.0144
2024-09-29T08:30:02.856Z,-0.0083,0.2332,-0.9769,0.0338,0.0055,0.0806,0.0134,0.0193,-0.0043,-35.365362810004015,149.09506469978865,618.6759,0.0000,0.3558,-0.2257,0.0143
2024-09-29T08:30:02.861Z,0.0273,0.2162,-0.9749,0.0338,0.0055,0.0806,0.0057,0.0121,-0.0041,-35.365362810004015,149.09506469978865,618.6759,0.0000,0.3558,-0.2257,0.0142
2024-09-29T08:30:02.871Z,0.0258,0.2203,-0.9890,0.0338,0.0055,0.0806,0.0055,0.0000,-0.0117,-35.365362810004015,149.09506469978865,618.6759,0.0000,0.3558,-0.2257,0.0143
2024-09-29T08:30:02.881Z,0.0041,0.2213,-0.9551,0.0338,0.0055,0.0806,0.0074,0.0003,-0.0050,-35.365362810004015,149.09506469978865,618.6759,0.0000,0.3558,-0.2257,0.0143
2024-09-29T08:30:02.891Z,0.0103,0.2295,-0.9686,0.0338,0.0055,0.0806,0.0132,0.0034,-0.0022,-35.365362810004015,149.09506469978865,618.6759,0.0000,0.3558,-0.2257,0.0142
2024-09-29T08:30:02.907Z,0.0306,0.2133,-0.9944,0.0338,0.0055,0.0806,0.0135,0.0231,-0.0060,-35.365362810004015,149.09506469978865,618.6759,0.0000,0.3559,-0.2257,0.0143
2024-09-29T08:30:02.911Z,0.0202,0.2231,-0.9614,0.0338,0.0055,0.0806,0.0059,0.0058,-0.0097,-35.365362810004015,149.09506469978865,618.6759,0.0000,0.3559,-0.2256,0.0144
2024-09-29T08:30:02.922Z,-0.0130,0.2240,-0.9638,0.0338,0.0055,0.0806,0.0087,0.0095,-0.0007,-35.365362810004015,149.09506469978865,618.6759,0.0000,0.3559,-0.2257,0.0143
2024-09-29T08:30:02.931Z,0.0152,0.2266,-0.9614,0.0338,0.0055,0.0806,0.0055,-0.0231,-0.0067,-35.365362810004015,149.09506469978865,618.6759,0.0000,0.3558,-0.2257,0.0142
2024-09-29T08:30:02.941Z,0.0236,0.2134,-1.0039,0.0338,0.0055,0.0806,0.0099,0.0302,-0.0072,-35.365362810004015,149.09506469978865,618.6759,0.0000,0.3559,-0.2257,0.0143
2024-09-29T08:30:02.956Z,0.0153,0.2263,-0.9506,0.0338,0.0055,0.0806,0.0053,0.0046,-0.0085,-35.365362810004015,149.09506469978865,618.6759,0.0000,0.3559,-0.2257,0.0144
2024-09-29T08:30:02.961Z,-0.0076,0.2289,-0.9745,0.0338,0.0055,0.0806,0.0126,0.0104,-0.0040,-35.365362810004015,149.09506469978865,618.6759,0.0000,0.3559,-0.2257,0.0144
2024-09-29T08:30:02.973Z,0.0297,0.2186,-0.9647,0.0338,0.0055,0.0806,0.0004,-0.0030,-0.0055,-35.365362810004015,149.09506469978865,618.6759,0.0000,0.3558,-0.2257,0.0142
2024-09-29T08:30:02.981Z,0.0263,0.2163,-0.9988,0.0338,0.0055,0.0806,0.0028,0.0066,-0.0070,-35.365362810004015,149.09506469978865,618.6759,0.0000,0.3559,-0.2256,0.0144
2024-09-29T08:30:02.991Z,0.0060,0.2242,-0.9508,0.0338,0.0055,0.0806,0.0075,-0.0120,-0.0084,-35.365362810004015,149.09506469978865,618.6759,0.0000,0.3559,-0.2256,0.0144
2024-09-29T08:30:03.001Z,-0.0043,0.2338,-0.9769,0.0338,0.0055,0.0806,0.0124,0.0200,-0.0038,-35.365362810004015,149.09506469978865,618.6759,0.0000,0.3559,-0.2256,0.0143
2024-09-29T08:30:03.011Z,0.0271,0.2157,-0.9771,0.0338,0.0055,0.0806,0.0072,0.0131,-0.0050,-35.365362810004015,149.09506469978865,618.6759,0.0000,0.3559,-0.2257,0.0142
2024-09-29T08:30:03.023Z,0.0233,0.2221,-0.9795,0.0338,0.0055,0.0806,0.0014,-0.0011,-0.0103,-35.365362810004015,149.09506469978865,618.6759,0.0000,0.3558,-0.2256,0.0144
2024-09-29T08:30:03.031Z,0.0009,0.2219,-0.9568,0.0338,0.0055,0.0806,0.0062,0.0077,-0.0087,-35.365362810004015,149.09506469978865,618.6759,0.0000,0.3558,-0.2257,0.0144
2024-09-29T08:30:03.041Z,0.0138,0.2292,-0.9679,0.0338,0.0055,0.0806,0.0132,-0.0093,-0.0034,-35.365362810004015,149.09506469978865,618.6759,0.0000,0.3558,-0.2257,0.0142
2024-09-29T08:30:03.051Z,0.0309,0.2139,-0.9999,0.0338,0.0055,0.0806,0.0124,0.0250,-0.0063,-35.365362810004015,149.09506469978865,618.6759,0.0000,0.3558,-0.2257,0.0143
2024-09-29T08:30:03.061Z,0.0204,0.2239,-0.9579,0.0338,0.0055,0.0806,0.0075,0.0079,-0.0080,-35.365362810004015,149.09506469978865,618.6759,0.0000,0.3558,-0.2256,0.0144
2024-09-29T08:30:03.071Z,-0.0131,0.2253,-0.9695,0.0338,0.0055,0.0806,0.0110,0.0104,-0.0035,-35.365362810004015,149.09506469978865,618.6759,0.0000,0.3558,-0.2256,0.0144
2024-09-29T08:30:03.081Z,0.0184,0.2251,-0.9608,0.0338,0.0055,0.0806,0.0024,-0.0229,-0.0100,-35.365362810004015,149.09506469978865,618.6759,0.0000,0.3558,-0.2256,0.0142
2024-09-29T08:30:03.091Z,0.0237,0.2153,-1.0036,0.0338,0.0055,0.0806,0.0049,0.0253,-0.0064,-35.365362810004015,149.09506469978865,618.6759,0.0000,0.3559,-0.2256,0.0143
2024-09-29T08:30:03.101Z,0.0159,0.2258,-0.9510,0.0338,0.0055,0.0806,0.0093,0.0001,-0.0094,-35.365362810004015,149.09506469978865,618.6759,0.0000,0.3559,-0.2256,0.0143
2024-09-29T08:30:03.111Z,-0.0053,0.2292,-0.9784,0.0338,0.0055,0.0806,0.0134,0.0125,-0.0039,-35.365362810004015,149.09506469978865,618.6759,0.0000,0.3559,-0.2256,0.0143
2024-09-29T08:30:03.121Z,0.0311,0.2175,-0.9672,0.0338,0.0055,0.0806,0.0026,0.0042,-0.0050,-35.365362810004015,149.09506469978865,618.6759,0.0000,0.3559,-0.2256,0.0142
2024-09-29T08:30:03.131Z,0.0240,0.2180,-0.9930,0.0338,0.0055,0.0806,0.0008,-0.0014,-0.0112,-35.365362810004015,149.09506469978865,618.6759,0.0000,0.3559,-0.2256,0.0144
2024-09-29T08:30:03.141Z,0.0022,0.2243,-0.9518,0.0338,0.0055,0.0806,0.0092,-0.0076,-0.0091,-35.365362810004015,149.09506469978865,618.6759,0.0000,0.3559,-0.2256,0.0145
2024-09-29T08:30:03.151Z,-0.0035,0.2334,-0.9745,0.0338,0.0055,0.0806,0.0099,0.0191,-0.0048,-35.365362810004015,149.09506469978865,618.6759,0.0000,0.3559,-0.2256,0.0143
2024-09-29T08:30:03.161Z,0.0280,0.2139,-0.9833,0.0338,0.0055,0.0806,0.0098,0.0156,-0.0090,-35.365362810004015,149.09506469978865,618.6759,0.0000,0.3559,-0.2256,0.0143
2024-09-29T08:30:03.173Z,0.0239,0.2229,-0.9751,0.0338,0.0055,0.0806,0.0024,-0.0003,-0.0122,-35.365362810004015,149.09506469978865,618.6759,0.0000,0.3559,-0.2255,0.0144
2024-09-29T08:30:03.181Z,-0.0024,0.2206,-0.9602,0.0338,0.0055,0.0806,0.0069,0.0098,-0.0073,-35.365362810004015,149.09506469978865,618.6759,0.0000,0.3559,-0.2256,0.0144
2024-09-29T08:30:03.191Z,0.0178,0.2277,-0.9650,0.0338,0.0055,0.0806,0.0098,-0.0143,-0.0024,-35.365362810004015,149.09506469978865,618.6759,0.0000,0.3559,-0.2256,0.0143
2024-09-29T08:30:03.201Z,0.0311,0.2133,-1.0011,0.0338,0.0055,0.0806,0.0100,0.0292,-0.0069,-35.365362810004015,149.09506469978865,618.6759,0.0000,0.3559,-0.2256,0.0144
2024-09-29T08:30:03.211Z,0.0183,0.2248,-0.9544,0.0338,0.0055,0.0806,0.0052,0.0090,-0.0108,-35.365362810004015,149.09506469978865,618.6759,0.0000,0.3559,-0.2255,0.0145
2024-09-29T08:30:03.223Z,-0.0154,0.2272,-0.9714,0.0338,0.0055,0.0806,0.0116,0.0100,0.0011,-35.365362810004015,149.09506469978865,618.6759,0.0000,0.3559,-0.2256,0.0144
2024-09-29T08:30:03.231Z,0.0202,0.2242,-0.9587,0.0338,0.0055,0.0806,0.0022,-0.0181,-0.0076,-35.365362810004015,149.09506469978865,618.6759,0.0000,0.3559,-0.2256,0.0142
2024-09-29T08:30:03.241Z,0.0235,0.2155,-1.0010,0.0338,0.0055,0.0806,0.0044,0.0182,-0.0087,-35.365362810004015,149.09506469978865,618.6759,0.0000,0.3559,-0.2256,0.0143
2024-09-29T08:30:03.251Z,0.0121,0.2254,-0.9501,0.0338,0.0055,0.0806,0.0107,-0.0057,-0.0082,-35.365362810004015,149.09506469978865,618.6759,0.0000,0.3559,-0.2256,0.0144
2024-09-29T08:30:03.261Z,-0.0064,0.2305,-0.9759,0.0338,0.0055,0.0806,0.0141,0.0173,-0.0036,-35.365362810004015,149.09506469978865,618.6759,0.0000,0.3559,-0.2255,0.0144
2024-09-29T08:30:03.274Z,0.0308,0.2161,-0.9679,0.0338,0.0055,0.0806,0.0046,0.0134,-0.0072,-35.365362810004015,149.09506469978865,618.6759,0.0000,0.3559,-0.2256,0.0143
2024-09-29T08:30:03.281Z,0.0225,0.2190,-0.9895,0.0338,0.0055,0.0806,0.0017,-0.0011,-0.0099,-35.365362810004015,149.09506469978865,618.6759,0.0000,0.3560,-0.2255,0.0145
2024-09-29T08:30:03.291Z,0.0002,0.2238,-0.9539,0.0338,0.0055,0.0806,0.0072,-0.0048,-0.0089,-35.365362810004015,149.09506469978865,618.6759,0.0000,0.3559,-0.2255,0.0145
2024-09-29T08:30:03.301Z,0.0005,0.2338,-0.9740,0.0338,0.0055,0.0806,0.0141,0.0112,-0.0053,-35.365362810004015,149.09506469978865,618.6759,0.0000,0.3559,-0.2255,0.0143
2024-09-29T08:30:03.311Z,0.0274,0.2145,-0.9891,0.0338,0.0055,0.0806,0.0106,0.0119,-0.0072,-35.365362810004015,149.09506469978865,618.6759,0.0000,0.3559,-0.2256,0.0143
2024-09-29T08:30:03.325Z,0.0224,0.2244,-0.9722,0.0338,0.0055,0.0806,0.0030,0.0051,-0.0085,-35.365362810004015,149.09506469978865,618.6759,0.0000,0.3559,-0.2255,0.0144
2024-09-29T08:30:03.331Z,-0.0040,0.2230,-0.9621,0.0338,0.0055,0.0806,0.0092,0.0088,-0.0056,-35.365362810004015,149.09506469978865,618.6759,0.0000,0.3559,-0.2256,0.0144
2024-09-29T08:30:03.341Z,0.0228,0.2269,-0.9628,0.0338,0.0055,0.0806,0.0081,-0.0178,-0.0053,-35.365362810004015,149.09506469978865,618.6759,0.0000,0.3559,-0.2256,0.0142
2024-09-29T08:30:03.351Z,0.0315,0.2137,-1.0056,0.0338,0.0055,0.0806,0.0096,0.0270,-0.0063,-35.365362810004015,149.09506469978865,618.6759,0.0000,0.3559,-0.2256,0.0144
2024-09-29T08:30:03.361Z,0.0170,0.2254,-0.9535,0.0338,0.0055,0.0806,0.0049,0.0107,-0.0076,-35.365362810004015,149.09506469978865,618.6759,0.0000,0.3559,-0.2255,0.0145
2024-09-29T08:30:03.374Z,-0.0149,0.2284,-0.9718,0.0338,0.0055,0.0806,0.0161,0.0104,-0.0053,-35.365362810004015,149.09506469978865,618.6759,0.0000,0.3559,-0.2255,0.0144
2024-09-29T08:30:03.381Z,0.0216,0.2220,-0.9577,0.0338,0.0055,0.0806,0.0008,-0.0176,-0.0071,-35.365362810004015,149.09506469978865,618.6759,0.0000,0.3559,-0.2256,0.0142
2024-09-29T08:30:03.391Z,0.0226,0.2159,-0.9994,0.0338,0.0055,0.0806,0.0000,0.0115,-0.0068,-35.365362810004015,149.09506469978865,618.6759,0.0000,0.3559,-0.2255,0.0144
2024-09-29T08:30:03.401Z,0.0095,0.2249,-0.9505,0.0338,0.0055,0.0806,0.0089,-0.0055,-0.0074,-35.365362810004015,149.09506469978865,618.6759,0.0000,0.3559,-0.2255,0.0144
2024-09-29T08:30:03.411Z,-0.0036,0.2313,-0.9764,0.0338,0.0055,0.0806,0.0135,0.0173,-0.0029,-35.365362810004015,149.09506469978865,618.6759,0.0000,0.3559,-0.2255,0.0143
2024-09-29T08:30:03.424Z,0.0332,0.2153,-0.9756,0.0338,0.0055,0.0806,0.0075,0.0115,-0.0058,-35.365362810004015,149.09506469978865,618.6759,0.0000,0.3559,-0.2256,0.0143
2024-09-29T08:30:03.431Z,0.0248,0.2207,-0.9856,0.0338,0.0055,0.0806,0.0020,-0.0015,-0.0099,-35.365362810004015,149.09506469978865,618.6759,0.0000,0.3559,-0.2255,0.0145
2024-09-29T08:30:03.441Z,-0.0023,0.2223,-0.9554,0.0338,0.0055,0.0806,0.0086,-0.0000,-0.0122,-35.365362810004015,149.09506469978865,618.6759,0.0000,0.3559,-0.2255,0.0145
2024-09-29T08:30:03.451Z,0.0040,0.2329,-0.9713,0.0338,0.0055,0.0806,0.0130,0.0024,-0.0024,-35.365362810004015,149.09506469978865,618.6759,0.0000,0.3559,-0.2255,0.0143
2024-09-29T08:30:03.461Z,0.0277,0.2136,-0.9916,0.0338,0.0055,0.0806,0.0144,0.0186,-0.0066,-35.365362810004015,149.09506469978865,618.6759,0.0000,0.3559,-0.2256,0.0143
2024-09-29T08:30:03.474Z,0.0237,0.2245,-0.9683,0.0338,0.0055,0.0806,0.0040,0.0087,-0.0115,-35.365362810004015,149.09506469978865,618.6759,0.0000,0.3559,-0.2255,0.0144
2024-09-29T08:30:03.481Z,-0.0043,0.2213,-0.9666,0.0338,0.0055,0.0806,0.0085,0.0151,-0.0053,-35.365362810004015,149.09506469978865,618.6759,0.0000,0.3559,-0.2255,0.0143
2024-09-29T08:30:03.491Z,0.0233,0.2243,-0.9606,0.0338,0.0055,0.0806,0.0052,-0.0267,-0.0060,-35.365362810004015,149.09506469978865,618.6759,0.0000,0.3559,-0.2256,0.0142
2024-09-29T08:30:03.501Z,0.0283,0.2128,-1.0039,0.0338,0.0055,0.0806,0.0064,0.0242,-0.0075,-35.365362810004015,149.09506469978865,618.6759,0.0000,0.3559,-0.2255,0.0143
2024-09-29T08:30:03.511Z,0.0130,0.2239,-0.9500,0.0338,0.0055,0.0806,0.0077,0.0010,-0.0106,-35.365362810004015,149.09506469978865,618.6759,0.0000,0.3559,-0.2255,0.0144
2024-09-29T08:30:03.524Z,-0.0164,0.2273,-0.9731,0.0338,0.0055,0.0806,0.0134,0.0130,-0.0028,-35.365362810004015,149.09506469978865,618.6759,0.0000,0.3559,-0.2255,0.0143
2024-09-29T08:30:03.531Z,0.0233,0.2194,-0.9598,0.0338,0.0055,0.0806,-0.0030,-0.0121,-0.0089,-35.365362810004015,149.09506469978865,618.6759,0.0000,0.3559,-0.2256,0.0142
2024-09-29T08:30:03.541Z,0.0253,0.2162,-0.9974,0.0338,0.0055,0.0806,0.0024,0.0160,-0.0111,-35.365362810004015,149.09506469978865,618.6759,0.0000,0.3559,-0.2255,0.0143
2024-09-29T08:30:03.551Z,0.0107,0.2235,-0.9514,0.0338,0.0055,0.0806,0.0064,-0.0160,-0.0109,-35.365362810004015,149.09506469978865,618.6759,0.0000,0.3559,-0.2256,0.0144
2024-09-29T08:30:03.561Z,-0.0003,0.2302,-0.9755,0.0338,0.0055,0.0806,0.0142,0.0225,-0.0060,-35.365362810004015,149.09506469978865,618.6759,0.0000,0.3559,-0.2256,0.0143
2024-09-29T08:30:03.574Z,0.0326,0.2131,-0.9792,0.0338,0.0055,0.0806,0.0047,0.0229,-0.0046,-35.365362810004015,149.09506469978865,618.6759,0.0000,0.3559,-0.2256,0.0143
2024-09-29T08:30:03.581Z,0.0234,0.2204,-0.9810,0.0338,0.0055,0.0806,0.0031,-0.0067,-0.0109,-35.365362810004015,149.09506469978865,618.6759,0.0000,0.3559,-0.2255,0.0145
2024-09-29T08:30:03.591Z,-0.0051,0.2236,-0.9579,0.0338,0.0055,0.0806,0.0080,0.0024,-0.0064,-35.365362810004015,149.09506469978865,618.6759,0.0000,0.3559,-0.2256,0.0145
2024-09-29T08:30:03.601Z,0.0063,0.2311,-0.9687,0.0338,0.0055,0.0806,0.0100,-0.0068,-0.0015,-35.365362810004015,149.09506469978865,618.6759,0.0000,0.3559,-0.2256,0.0143
2024-09-29T08:30:03.611Z,0.0258,0.2142,-0.9967,0.0338,0.0055,0.0806,0.0132,0.0180,-0.0078,-35.365362810004015,149.09506469978865,618.6759,0.0000,0.3559,-0.2256,0.0143
2024-09-29T08:30:03.625Z,0.0216,0.2261,-0.9654,0.0338,0.0055,0.0806,0.0031,0.0132,-0.0099,-35.365362810004015,149.09506469978865,618.6759,0.0000,0.3559,-0.2256,0.0144
2024-09-29T08:30:03.631Z,-0.0081,0.2230,-0.9661,0.0338,0.0055,0.0806,0.0090,0.0122,-0.0016,-35.365362810004015,149.09506469978865,618.6759,0.0000,0.3559,-0.2256,0.0143
2024-09-29T08:30:03.641Z,0.0254,0.2240,-0.9594,0.0338,0.0055,0.0806,0.0010,-0.0223,-0.0070,-35.365362810004015,149.09506469978865,618.6759,0.0000,0.3559,-0.2257,0.0142
2024-09-29T08:30:03.651Z,0.0298,0.2148,-1.0074,0.0338,0.0055,0.0806,0.0033,0.0261,-0.0080,-35.365362810004015,149.09506469978865,618.6759,0.0000,0.3559,-0.2256,0.0144
2024-09-29T08:30:03.661Z,0.0143,0.2259,-0.9499,0.0338,0.0055,0.0806,0.0098,-0.0056,-0.0093,-35.365362810004015,149.09506469978865,618.6759,0.0000,0.3559,-0.2256,0.0144
2024-09-29T08:30:03.675Z,-0.0139,0.2314,-0.9781,0.0338,0.0055,0.0806,0.0150,0.0163,-0.0040,-35.365362810004015,149.09506469978865,618.6759,0.0000,0.3559,-0.2256,0.0143
2024-09-29T08:30:03.681Z,0.0253,0.2199,-0.9642,0.0338,0.0055,0.0806,0.0000,0.0014,-0.0099,-35.365362810004015,149.09506469978865,618.6759,0.0000,0.3559,-0.2257,0.0141
2024-09-29T08:30:03.691Z,0.0237,0.2193,-0.9957,0.0338,0.0055,0.0806,-0.0004,-0.0010,-0.0108,-35.365362810004015,149.09506469978865,618.6759,0.0000,0.3559,-0.2257,0.0142
2024-09-29T08:30:03.701Z,0.0070,0.2254,-0.9521,0.0338,0.0055,0.0806,0.0076,-0.0081,-0.0087,-35.365362810004015,149.09506469978865,618.6759,0.0000,0.3559,-0.2257,0.0142
2024-09-29T08:30:03.711Z,0.0017,0.2328,-0.9737,0.0338,0.0055,0.0806,0.0133,0.0138,-0.0053,-35.365362810004015,149.09506469978865,618.6759,0.0000,0.3559,-0.2256,0.0141
2024-09-29T08:30:03.725Z,0.0319,0.2136,-0.9829,0.0338,0.0055,0.0806,0.0090,0.0185,-0.0055,-35.365362810004015,149.09506469978865,618.6759,0.0000,0.3559,-0.2257,0.0141
2024-09-29T08:30:03.731Z,0.0222,0.2232,-0.9747,0.0338,0.0055,0.0806,0.0002,-0.0014,-0.0117,-35.365362810004015,149.09506469978865,618.6759,0.0000,0.3559,-0.2256,0.0143
2024-09-29T08:30:03.741Z,-0.0090,0.2230,-0.9593,0.0338,0.0055,0.0806,0.0060,0.0054,-0.0079,-35.365362810004015,149.09506469978865,618.6759,0.0000,0.3559,-0.2257,0.0143
2024-09-29T08:30:03.751Z,0.0083,0.2293,-0.9644,0.0338,0.0055,0.0806,0.0099,-0.0142,-0.0040,-35.365362810004015,149.09506469978865,618.6759,0.0000,0.3559,-0.2257,0.0141
2024-09-29T08:30:03.761Z,0.0257,0.2144,-0.9979,0.0338,0.0055,0.0806,0.0133,0.0240,-0.0056,-35.365362810004015,149.09506469978865,618.6759,0.0000,0.3559,-0.2257,0.0142
2024-09-29T08:30:03.775Z,0.0223,0.2253,-0.9593,0.0338,0.0055,0.0806,0.0075,0.0095,-0.0119,-35.365362810004015,149.09506469978865,618.6759,0.0000,0.3559,-0.2256,0.0143
2024-09-29T08:30:03.781Z,-0.0072,0.2251,-0.9720,0.0338,0.0055,0.0806,0.0105,0.0143,-0.0026,-35.365362810004015,149.09506469978865,618.6759,0.0000,0.3559,-0.2257,0.0142
2024-09-29T08:30:03.791Z,0.0273,0.2211,-0.9612,0.0338,0.0055,0.0806,0.0032,-0.0175,-0.0066,-35.365362810004015,149.09506469978865,618.6759,0.0000,0.3559,-0.2257,0.0141
2024-09-29T08:30:03.801Z,0.0279,0.2145,-1.0039,0.0338,0.0055,0.0806,0.0078,0.0164,-0.0056,-35.365362810004015,149.09506469978865,618.6759,0.0000,0.3559,-0.2256,0.0142
2024-09-29T08:30:03.811Z,0.0082,0.2236,-0.9496,0.0338,0.0055,0.0806,0.0108,-0.0130,-0.0063,-35.365362810004015,149.09506469978865,618.6759,0.0000,0.3559,-0.2257,0.0142
2024-09-29T08:30:03.824Z,-0.0141,0.2299,-0.9758,0.0338,0.0055,0.0806,0.0107,0.0147,-0.0060,-35.365362810004015,149.09506469978865,618.6759,0.0000,0.3559,-0.2257,0.0141
2024-09-29T08:30:03.831Z,0.0250,0.2164,-0.9654,0.0338,0.0055,0.0806,-0.0010,0.0007,-0.0038,-35.365362810004015,149.09506469978865,618.6759,0.0000,0.3559,-0.2258,0.0139
2024-09-29T08:30:03.841Z,0.0236,0.2186,-0.9897,0.0338,0.0055,0.0806,-0.0008,-0.0084,-0.0094,-35.365362810004015,149.09506469978865,618.6759,0.0000,0.3559,-0.2257,0.0141
2024-09-29T08:30:03.851Z,0.0060,0.2219,-0.9556,0.0338,0.0055,0.0806,0.0098,-0.0151,-0.0108,-35.365362810004015,149.09506469978865,618.6759,0.0000,0.3559,-0.2258,0.0141
2024-09-29T08:30:03.861Z,0.0045,0.2300,-0.9723,0.0338,0.0055,0.0806,0.0108,0.0073,-0.0032,-35.365362810004015,149.09506469978865,618.6759,0.0000,0.3559,-0.2258,0.0139
2024-09-29T08:30:03.876Z,0.0301,0.2131,-0.9896,0.0338,0.0055,0.0806,0.0096,0.0100,-0.0031,-35.365362810004015,149.09506469978865,618.6759,0.0000,0.3559,-0.2258,0.0140
2024-09-29T08:30:03.880Z,0.0213,0.2233,-0.9694,0.0338,0.0055,0.0806,-0.0013,0.0002,-0.0095,-35.365362810004015,149.09506469978865,618.6759,0.0000,0.3560,-0.2257,0.0141
2024-09-29T08:30:03.891Z,-0.0100,0.2235,-0.9631,0.0338,0.0055,0.0806,0.0066,0.0051,-0.0047,-35.365362810004015,149.09506469978865,618.6759,0.0000,0.3560,-0.2258,0.0141
2024-09-29T08:30:03.902Z,0.0132,0.2293,-0.9648,0.0338,0.0055,0.0806,0.0080,-0.0187,-0.0049,-35.365362810004015,149.09506469978865,618.6759,0.0000,0.3559,-0.2258,0.0139
2024-09-29T08:30:03.911Z,0.0281,0.2140,-1.0041,0.0338,0.0055,0.0806,0.0078,0.0230,-0.0080,-35.365362810004015,149.09506469978865,618.6759,0.0000,0.3559,-0.2258,0.0140
2024-09-29T08:30:03.925Z,0.0207,0.2254,-0.9568,0.0338,0.0055,0.0806,0.0072,0.0096,-0.0111,-35.365362810004015,149.09506469978865,618.6759,0.0000,0.3559,-0.2257,0.0140
2024-09-29T08:30:03.931Z,-0.0088,0.2244,-0.9708,0.0338,0.0055,0.0806,0.0137,0.0076,-0.0008,-35.365362810004015,149.09506469978865,618.6759,0.0000,0.3559,-0.2258,0.0141
2024-09-29T08:30:03.941Z,0.0286,0.2204,-0.9580,0.0338,0.0055,0.0806,-0.0023,-0.0106,-0.0071,-35.365362810004015,149.09506469978865,618.6759,0.0000,0.3559,-0.2258,0.0139
2024-09-29T08:30:03.951Z,0.0282,0.2145,-1.0023,0.0338,0.0055,0.0806,0.0031,0.0105,-0.0064,-35.365362810004015,149.09506469978865,618.6759,0.0000,0.3559,-0.2257,0.0141
2024-09-29T08:30:03.961Z,0.0106,0.2242,-0.9484,0.0338,0.0055,0.0806,0.0111,-0.0050,-0.0078,-35.365362810004015,149.09506469978865,618.6759,0.0000,0.3559,-0.2257,0.0141
2024-09-29T08:30:03.976Z,-0.0112,0.2328,-0.9783,0.0338,0.0055,0.0806,0.0114,0.0187,-0.0035,-35.365362810004015,149.09506469978865,618.6759,0.0000,0.3559,-0.2257,0.0140
2024-09-29T08:30:03.980Z,-0.0112,0.2328,-0.9783,0.0338,0.0055,0.0806,0.0022,0.0139,-0.0074,-35.365362810004015,149.09506469978865,618.6759,0.0000,0.3559,-0.2258,0.0139
2024-09-29T08:30:03.991Z,0.0244,0.2213,-0.9865,0.0338,0.0055,0.0806,0.0014,-0.0050,-0.0117,-35.365362810004015,149.09506469978865,618.6759,0.0000,0.3559,-0.2257,0.0141
2024-09-29T08:30:04.002Z,0.0040,0.2237,-0.9556,0.0338,0.0055,0.0806,0.0060,-0.0030,-0.0056,-35.365362810004015,149.09506469978865,618.6759,0.0000,0.3559,-0.2258,0.0141
2024-09-29T08:30:04.011Z,0.0093,0.2321,-0.9721,0.0338,0.0055,0.0806,0.0130,0.0093,-0.0034,-35.365362810004015,149.09506469978865,618.6759,0.0000,0.3559,-0.2257,0.0139
2024-09-29T08:30:04.027Z,0.0336,0.2138,-0.9960,0.0338,0.0055,0.0806,0.0145,0.0218,-0.0052,-35.365362810004015,149.09506469978865,618.6759,0.0000,0.3559,-0.2258,0.0140
2024-09-29T08:30:04.030Z,0.0336,0.2138,-0.9960,0.0338,0.0055,0.0806,0.0052,0.0019,-0.0089,-35.365362810004015,149.09506469978865,618.6759,0.0000,0.3559,-0.2257,0.0142
2024-09-29T08:30:04.041Z,-0.0086,0.2253,-0.9663,0.0338,0.0055,0.0806,0.0095,0.0186,-0.0069,-35.365362810004015,149.09506469978865,618.6759,0.0000,0.3559,-0.2257,0.0141
2024-09-29T08:30:04.051Z,0.0159,0.2279,-0.9638,0.0338,0.0055,0.0806,0.0049,-0.0220,-0.0068,-35.365362810004015,149.09506469978865,618.6759,0.0000,0.3559,-0.2257,0.0139
2024-09-29T08:30:04.061Z,0.0269,0.2146,-1.0039,0.0338,0.0055,0.0806,0.0057,0.0212,-0.0058,-35.365362810004015,149.09506469978865,618.6759,0.0000,0.3559,-0.2257,0.0140
2024-09-29T08:30:04.071Z,0.0216,0.2263,-0.9545,0.0338,0.0055,0.0806,0.0073,0.0101,-0.0098,-35.365362810004015,149.09506469978865,618.6759,0.0000,0.3559,-0.2257,0.0141
2024-09-29T08:30:04.081Z,-0.0063,0.2281,-0.9760,0.0338,0.0055,0.0806,0.0151,0.0096,-0.0022,-35.365362810004015,149.09506469978865,618.6759,0.0000,0.3559,-0.2258,0.0141
2024-09-29T08:30:04.097Z,0.0303,0.2187,-0.9627,0.0338,0.0055,0.0806,-0.0012,-0.0150,-0.0085,-35.365362810004015,149.09506469978865,618.6759,0.0000,0.3559,-0.2258,0.0140
2024-09-29T08:30:04.100Z,0.0303,0.2187,-0.9627,0.0338,0.0055,0.0806,0.0020,0.0107,-0.0054,-35.365362810004015,149.09506469978865,618.6759,0.0000,0.3560,-0.2257,0.0141
2024-09-29T08:30:04.111Z,0.0270,0.2169,-1.0003,0.0338,0.0055,0.0806,0.0080,-0.0120,-0.0077,-35.365362810004015,149.09506469978865,618.6759,0.0000,0.3560,-0.2257,0.0142
2024-09-29T08:30:04.121Z,0.0068,0.2235,-0.9492,0.0338,0.0055,0.0806,0.0136,0.0181,-0.0043,-35.365362810004015,149.09506469978865,618.6759,0.0000,0.3560,-0.2257,0.0140
2024-09-29T08:30:04.131Z,-0.0090,0.2332,-0.9745,0.0338,0.0055,0.0806,0.0065,0.0152,-0.0045,-35.365362810004015,149.09506469978865,618.6759,0.0000,0.3560,-0.2258,0.0139
2024-09-29T08:30:04.141Z,0.0265,0.2161,-0.9730,0.0338,0.0055,0.0806,0.0022,-0.0053,-0.0110,-35.365362810004015,149.09506469978865,618.6759,0.0000,0.3560,-0.2257,0.0141
2024-09-29T08:30:04.150Z,0.0244,0.2208,-0.9802,0.0338,0.0055,0.0806,0.0099,0.0012,-0.0094,-35.365362810004015,149.09506469978865,618.6759,0.0000,0.3560,-0.2258,0.0141
2024-09-29T08:30:04.161Z,0.0008,0.2230,-0.9567,0.0338,0.0055,0.0806,0.0117,-0.0052,-0.0047,-35.365362810004015,149.09506469978865,618.6759,0.0000,0.3560,-0.2258,0.0140
2024-09-29T08:30:04.171Z,0.0091,0.2308,-0.9689,0.0338,0.0055,0.0806,0.0156,0.0232,-0.0048,-35.365362810004015,149.09506469978865,618.6759,0.0000,0.3560,-0.2257,0.0141
2024-09-29T08:30:04.181Z,0.0275,0.2133,-0.9960,0.0338,0.0055,0.0806,0.0046,0.0087,-0.0107,-35.365362810004015,149.09506469978865,618.6759,0.0000,0.3560,-0.2257,0.0143
2024-09-29T08:30:04.191Z,0.0168,0.2251,-0.9609,0.0338,0.0055,0.0806,0.0103,0.0103,-0.0034,-35.365362810004015,149.09506469978865,618.6759,0.0000,0.3560,-0.2256,0.0143
2024-09-29T08:30:04.201Z,-0.0159,0.2257,-0.9670,0.0338,0.0055,0.0806,-0.0004,-0.0307,-0.0067,-35.365362810004015,149.09506469978865,618.6759,0.0000,0.3560,-0.2257,0.0142
2024-09-29T08:30:04.211Z,0.0155,0.2259,-0.9607,0.0338,0.0055,0.0806,0.0030,0.0178,-0.0080,-35.365362810004015,149.09506469978865,618.6759,0.0000,0.3560,-0.2257,0.0144
2024-09-29T08:30:04.221Z,0.0259,0.2143,-1.0042,0.0338,0.0055,0.0806,0.0090,-0.0094,-0.0095,-35.365362810004015,149.09506469978865,618.6759,0.0000,0.3560,-0.2257,0.0144
2024-09-29T08:30:04.231Z,0.0180,0.2256,-0.9515,0.0338,0.0055,0.0806,0.0128,0.0057,-0.0043,-35.365362810004015,149.09506469978865,618.6759,0.0000,0.3560,-0.2257,0.0143
2024-09-29T08:30:04.242Z,0.0296,0.2173,-0.9644,0.0338,0.0055,0.0806,-0.0016,-0.0071,-0.0083,-35.365362810004015,149.09506469978865,618.6759,0.0000,0.3560,-0.2258,0.0141
2024-09-29T08:30:04.251Z,0.0296,0.2173,-0.9644,0.0338,0.0055,0.0806,0.0018,-0.0006,-0.0109,-35.365362810004015,149.09506469978865,618.6759,0.0000,0.3560,-0.2257,0.0142
2024-09-29T08:30:04.261Z,0.0252,0.2170,-0.9967,0.0338,0.0055,0.0806,0.0121,-0.0145,-0.0082,-35.365362810004015,149.09506469978865,618.6759,0.0000,0.3560,-0.2258,0.0142
2024-09-29T08:30:04.270Z,0.0043,0.2244,-0.9500,0.0338,0.0055,0.0806,0.0125,0.0216,-0.0042,-35.365362810004015,149.09506469978865,618.6759,0.0000,0.3560,-0.2258,0.0140
2024-09-29T08:30:04.281Z,-0.0070,0.2335,-0.9788,0.0338,0.0055,0.0806,0.0081,0.0122,-0.0039,-35.365362810004015,149.09506469978865,618.6759,0.0000,0.3560,-0.2258,0.0140
2024-09-29T08:30:04.293Z,0.0213,0.2221,-0.9780,0.0338,0.0055,0.0806,0.0037,-0.0002,-0.0117,-35.365362810004015,149.09506469978865,618.6759,0.0000,0.3560,-0.2257,0.0141
2024-09-29T08:30:04.301Z,0.0213,0.2221,-0.9780,0.0338,0.0055,0.0806,0.0080,0.0030,-0.0049,-35.365362810004015,149.09506469978865,618.6759,0.0000,0.3560,-0.2258,0.0141
2024-09-29T08:30:04.311Z,-0.0021,0.2224,-0.9591,0.0338,0.0055,0.0806,0.0129,-0.0045,-0.0046,-35.365362810004015,149.09506469978865,618.6759,0.0000,0.3559,-0.2258,0.0139
2024-09-29T08:30:04.321Z,0.0103,0.2294,-0.9675,0.0338,0.0055,0.0806,0.0108,0.0252,-0.0063,-35.365362810004015,149.09506469978865,618.6759,0.0000,0.3560,-0.2258,0.0140
2024-09-29T08:30:04.331Z,0.0291,0.2133,-1.0020,0.0338,0.0055,0.0806,0.0039,0.0126,-0.0119,-35.365362810004015,149.09506469978865,618.6759,0.0000,0.3559,-0.2257,0.0141
2024-09-29T08:30:04.341Z,0.0194,0.2245,-0.9588,0.0338,0.0055,0.0806,0.0134,0.0062,-0.0023,-35.365362810004015,149.09506469978865,618.6759,0.0000,0.3559,-0.2257,0.0141
2024-09-29T08:30:04.351Z,-0.0115,0.2263,-0.9703,0.0338,0.0055,0.0806,0.0021,-0.0193,-0.0065,-35.365362810004015,149.09506469978865,618.6759,0.0000,0.3559,-0.2258,0.0139
2024-09-29T08:30:04.361Z,0.0222,0.2237,-0.9626,0.0338,0.0055,0.0806,0.0067,0.0201,-0.0080,-35.365362810004015,149.09506469978865,618.6759,0.0000,0.3560,-0.2257,0.0140
2024-09-29T08:30:04.371Z,0.0271,0.2149,-1.0063,0.0338,0.0055,0.0806,0.0090,0.0024,-0.0088,-35.365362810004015,149.09506469978865,618.6759,0.0000,0.3559,-0.2257,0.0140
2024-09-29T08:30:04.381Z,0.0193,0.2253,-0.9506,0.0338,0.0055,0.0806,0.0144,0.0113,-0.0053,-35.365362810004015,149.09506469978865,618.6759,0.0000,0.3559,-0.2257,0.0139
2024-09-29T08:30:04.393Z,0.0322,0.2167,-0.9663,0.0338,0.0055,0.0806,0.0056,0.0131,-0.0071,-35.365362810004015,149.09506469978865,618.6759,0.0000,0.3559,-0.2258,0.0138
2024-09-29T08:30:04.400Z,0.0322,0.2167,-0.9663,0.0338,0.0055,0.0806,0.0013,-0.0030,-0.0099,-35.365362810004015,149.09506469978865,618.6759,0.0000,0.3560,-0.2257,0.0140
2024-09-29T08:30:04.411Z,0.0265,0.2173,-0.9925,0.0338,0.0055,0.0806,0.0114,-0.0031,-0.0111,-35.365362810004015,149.09506469978865,618.6759,0.0000,0.3559,-0.2257,0.0139
2024-09-29T08:30:04.421Z,0.0027,0.2214,-0.9491,0.0338,0.0055,0.0806,0.0116,0.0136,-0.0052,-35.365362810004015,149.09506469978865,618.6759,0.0000,0.3559,-0.2257,0.0138
2024-09-29T08:30:04.431Z,-0.0028,0.2322,-0.9713,0.0338,0.0055,0.0806,0.0100,0.0163,-0.0068,-35.365362810004015,149.09506469978865,618.6759,0.0000,0.3560,-0.2258,0.0137
2024-09-29T08:30:04.443Z,0.0241,0.2228,-0.9700,0.0338,0.0055,0.0806,-0.0005,-0.0101,-0.0112,-35.365362810004015,149.09506469978865,618.6759,0.0000,0.3559,-0.2257,0.0139
2024-09-29T08:30:04.450Z,0.0241,0.2228,-0.9700,0.0338,0.0055,0.0806,0.0023,0.0097,-0.0062,-35.365362810004015,149.09506469978865,618.6759,0.0000,0.3559,-0.2258,0.0139
2024-09-29T08:30:04.461Z,-0.0027,0.2217,-0.9620,0.0338,0.0055,0.0806,0.0069,-0.0190,-0.0053,-35.365362810004015,149.09506469978865,618.6759,0.0000,0.3559,-0.2258,0.0138
2024-09-29T08:30:04.471Z,0.0172,0.2285,-0.9652,0.0338,0.0055,0.0806,0.0124,0.0326,-0.0048,-35.365362810004015,149.09506469978865,618.6759,0.0000,0.3559,-0.2258,0.0140
2024-09-29T08:30:04.481Z,0.0294,0.2128,-1.0034,0.0338,0.0055,0.0806,0.0087,0.0086,-0.0107,-35.365362810004015,149.09506469978865,618.6759,0.0000,0.3559,-0.2257,0.0141
2024-09-29T08:30:04.493Z,0.0164,0.2262,-0.9552,0.0338,0.0055,0.0806,0.0133,0.0069,-0.0004,-35.365362810004015,149.09506469978865,618.6759,0.0000,0.3559,-0.2257,0.0140
2024-09-29T08:30:04.500Z,-0.0147,0.2282,-0.9732,0.0338,0.0055,0.0806,0.0004,-0.0113,-0.0095,-35.365362810004015,149.09506469978865,618.6759,0.0000,0.3559,-0.2257,0.0138
2024-09-29T08:30:04.511Z,0.0219,0.2226,-0.9603,0.0338,0.0055,0.0806,0.0030,0.0168,-0.0114,-35.365362810004015,149.09506469978865,618.6759,0.0000,0.3559,-0.2257,0.0139
2024-09-29T08:30:04.521Z,0.0240,0.2165,-1.0043,0.0338,0.0055,0.0806,0.0110,-0.0059,-0.0082,-35.365362810004015,149.09506469978865,618.6759,0.0000,0.3559,-0.2257,0.0140
2024-09-29T08:30:04.531Z,0.0138,0.2245,-0.9496,0.0338,0.0055,0.0806,0.0160,0.0163,-0.0019,-35.365362810004015,149.09506469978865,618.6759,0.0000,0.3559,-0.2257,0.0139
2024-09-29T08:30:04.543Z,-0.0047,0.2301,-0.9765,0.0338,0.0055,0.0806,0.0040,0.0121,-0.0053,-35.365362810004015,149.09506469978865,618.6759,0.0000,0.3559,-0.2257,0.0138
2024-09-29T08:30:04.550Z,0.0322,0.2159,-0.9708,0.0338,0.0055,0.0806,0.0024,-0.0028,-0.0112,-35.365362810004015,149.09506469978865,618.6759,0.0000,0.3559,-0.2256,0.0140
2024-09-29T08:30:04.561Z,0.0249,0.2194,-0.9881,0.0338,0.0055,0.0806,0.0075,-0.0018,-0.0086,-35.365362810004015,149.09506469978865,618.6759,0.0000,0.3559,-0.2257,0.0140
2024-09-29T08:30:04.570Z,-0.0013,0.2234,-0.9539,0.0338,0.0055,0.0806,0.0106,0.0089,-0.0058,-35.365362810004015,149.09506469978865,618.6759,0.0000,0.3559,-0.2257,0.0138
2024-09-29T08:30:04.581Z,-0.0016,0.2337,-0.9748,0.0338,0.0055,0.0806,0.0115,0.0186,-0.0067,-35.365362810004015,149.09506469978865,618.6759,0.0000,0.3559,-0.2257,0.0139
2024-09-29T08:30:04.593Z,0.0252,0.2162,-0.9918,0.0338,0.0055,0.0806,0.0030,0.0020,-0.0117,-35.365362810004015,149.09506469978865,618.6759,0.0000,0.3559,-0.2256,0.0140
2024-09-29T08:30:04.601Z,0.0212,0.2258,-0.9684,0.0338,0.0055,0.0806,0.0086,0.0168,-0.0032,-35.365362810004015,149.09506469978865,618.6759,0.0000,0.3559,-0.2257,0.0139
2024-09-29T08:30:04.611Z,-0.0068,0.2245,-0.9648,0.0338,0.0055,0.0806,0.0064,-0.0241,-0.0078,-35.365362810004015,149.09506469978865,618.6759,0.0000,0.3559,-0.2257,0.0138
2024-09-29T08:30:04.621Z,0.0180,0.2266,-0.9623,0.0338,0.0055,0.0806,0.0040,0.0339,-0.0075,-35.365362810004015,149.09506469978865,618.6759,0.0000,0.3560,-0.2257,0.0140
2024-09-29T08:30:04.631Z,0.0291,0.2131,-1.0042,0.0338,0.0055,0.0806,0.0075,0.0131,-0.0089,-35.365362810004015,149.09506469978865,618.6759,0.0000,0.3560,-0.2256,0.0141
2024-09-29T08:30:04.643Z,0.0148,0.2257,-0.9522,0.0338,0.0055,0.0806,0.0128,0.0166,-0.0026,-35.365362810004015,149.09506469978865,618.6759,0.0000,0.3560,-0.2256,0.0141
2024-09-29T08:30:04.650Z,-0.0148,0.2270,-0.9731,0.0338,0.0055,0.0806,0.0047,-0.0059,-0.0103,-35.365362810004015,149.09506469978865,618.6759,0.0000,0.3559,-0.2257,0.0139
2024-09-29T08:30:04.661Z,0.0241,0.2210,-0.9599,0.0338,0.0055,0.0806,0.0028,0.0126,-0.0073,-35.365362810004015,149.09506469978865,618.6759,0.0000,0.3559,-0.2256,0.0140
2024-09-29T08:30:04.671Z,0.0262,0.2166,-1.0006,0.0338,0.0055,0.0806,0.0070,-0.0060,-0.0062,-35.365362810004015,149.09506469978865,618.6759,0.0000,0.3559,-0.2257,0.0139
2024-09-29T08:30:04.681Z,0.0128,0.2246,-0.9503,0.0338,0.0055,0.0806,0.0120,0.0216,-0.0069,-35.365362810004015,149.09506469978865,618.6759,0.0000,0.3559,-0.2256,0.0139
2024-09-29T08:30:04.693Z,-0.0010,0.2302,-0.9787,0.0338,0.0055,0.0806,0.0083,0.0206,-0.0069,-35.365362810004015,149.09506469978865,618.6759,0.0000,0.3560,-0.2257,0.0138
2024-09-29T08:30:04.700Z,0.0346,0.2148,-0.9753,0.0338,0.0055,0.0806,0.0042,-0.0050,-0.0111,-35.365362810004015,149.09506469978865,618.6759,0.0000,0.3560,-0.2256,0.0140
2024-09-29T08:30:04.711Z,0.0280,0.2189,-0.9831,0.0338,0.0055,0.0806,0.0051,-0.0016,-0.0083,-35.365362810004015,149.09506469978865,618.6759,0.0000,0.3560,-0.2256,0.0139
2024-09-29T08:30:04.721Z,-0.0011,0.2208,-0.9564,0.0338,0.0055,0.0806,0.0102,0.0027,-0.0038,-35.365362810004015,149.09506469978865,618.6759,0.0000,0.3560,-0.2256,0.0138
2024-09-29T08:30:04.731Z,0.0047,0.2300,-0.9708,0.0338,0.0055,0.0806,0.0110,0.0265,-0.0037,-35.365362810004015,149.09506469978865,618.6759,0.0000,0.3560,-0.2257,0.0139
2024-09-29T08:30:04.744Z,0.0280,0.2119,-0.9910,0.0338,0.0055,0.0806,0.0053,0.0134,-0.0127,-35.365362810004015,149.09506469978865,618.6759,0.0000,0.3560,-0.2256,0.0139
2024-09-29T08:30:04.750Z,0.0225,0.2242,-0.9627,0.0338,0.0055,0.0806,0.0109,0.0084,-0.0031,-35.365362810004015,149.09506469978865,618.6759,0.0000,0.3560,-0.2257,0.0139
2024-09-29T08:30:04.761Z,-0.0048,0.2233,-0.9681,0.0338,0.0055,0.0806,0.0031,-0.0324,-0.0047,-35.365362810004015,149.09506469978865,618.6759,0.0000,0.3560,-0.2257,0.0139
2024-09-29T08:30:04.771Z,0.0233,0.2240,-0.9614,0.0338,0.0055,0.0806,0.0071,0.0280,-0.0066,-35.365362810004015,149.09506469978865,618.6759,0.0000,0.3560,-0.2256,0.0139
2024-09-29T08:30:04.781Z,0.0276,0.2130,-1.0043,0.0338,0.0055,0.0806,0.0090,0.0051,-0.0098,-35.365362810004015,149.09506469978865,618.6759,0.0000,0.3560,-0.2256,0.0140
2024-09-29T08:30:04.793Z,0.0134,0.2260,-0.9544,0.0338,0.0055,0.0806,0.0125,0.0082,-0.0038,-35.365362810004015,149.09506469978865,618.6759,0.0000,0.3560,-0.2256,0.0139
2024-09-29T08:30:04.800Z,-0.0144,0.2286,-0.9753,0.0338,0.0055,0.0806,-0.0006,-0.0076,-0.0096,-35.365362810004015,149.09506469978865,618.6759,0.0000,0.3560,-0.2257,0.0137
2024-09-29T08:30:04.811Z,0.0242,0.2212,-0.9618,0.0338,0.0055,0.0806,0.0027,-0.0002,-0.0110,-35.365362810004015,149.09506469978865,618.6759,0.0000,0.3560,-0.2257,0.0137
2024-09-29T08:30:04.821Z,0.0256,0.2188,-1.0015,0.0338,0.0055,0.0806,0.0069,-0.0108,-0.0098,-35.365362810004015,149.09506469978865,618.6759,0.0000,0.3560,-0.2256,0.0139
2024-09-29T08:30:04.831Z,0.0120,0.2252,-0.9533,0.0338,0.0055,0.0806,0.0122,0.0205,-0.0031,-35.365362810004015,149.09506469978865,618.6759,0.0000,0.3560,-0.2256,0.0139
2024-09-29T08:30:04.844Z,0.0014,0.2323,-0.9770,0.0338,0.0055,0.0806,0.0085,0.0153,-0.0030,-35.365362810004015,149.09506469978865,618.6759,0.0000,0.3560,-0.2256,0.0138
2024-09-29T08:30:04.850Z,0.0311,0.2152,-0.9789,0.0338,0.0055,0.0806,0.0006,-0.0026,-0.0119,-35.365362810004015,149.09506469978865,618.6759,0.0000,0.3560,-0.2255,0.0140
2024-09-29T08:30:04.861Z,0.0209,0.2205,-0.9783,0.0338,0.0055,0.0806,0.0061,0.0078,-0.0061,-35.365362810004015,149.09506469978865,618.6759,0.0000,0.3560,-0.2255,0.0140
2024-09-29T08:30:04.870Z,-0.0082,0.2251,-0.9544,0.0338,0.0055,0.0806,0.0092,-0.0076,-0.0036,-35.365362810004015,149.09506469978865,618.6759,0.0000,0.3560,-0.2255,0.0138
2024-09-29T08:30:04.880Z,0.0030,0.2326,-0.9666,0.0338,0.0055,0.0806,0.0130,0.0266,-0.0081,-35.365362810004015,149.09506469978865,618.6759,0.0000,0.3560,-0.2256,0.0139
2024-09-29T08:30:04.894Z,0.0248,0.2128,-0.9944,0.0338,0.0055,0.0806,0.0055,0.0144,-0.0101,-35.365362810004015,149.09506469978865,618.6759,0.0000,0.3560,-0.2255,0.0139
2024-09-29T08:30:04.900Z,0.0184,0.2260,-0.9623,0.0338,0.0055,0.0806,0.0093,0.0045,-0.0046,-35.365362810004015,149.09506469978865,618.6759,0.0000,0.3560,-0.2256,0.0139
2024-09-29T08:30:04.911Z,-0.0098,0.2245,-0.9655,0.0338,0.0055,0.0806,0.0021,-0.0255,-0.0077,-35.365362810004015,149.09506469978865,618.6759,0.0000,0.3560,-0.2256,0.0139
2024-09-29T08:30:04.920Z,0.0224,0.2243,-0.9580,0.0338,0.0055,0.0806,0.0066,0.0220,-0.0076,-35.365362810004015,149.09506469978865,618.6759,0.0000,0.3560,-0.2256,0.0139
2024-09-29T08:30:04.930Z,0.0267,0.2132,-1.0058,0.0338,0.0055,0.0806,0.0098,0.0031,-0.0055,-35.365362810004015,149.09506469978865,618.6759,0.0000,0.3560,-0.2256,0.0140
2024-09-29T08:30:04.945Z,0.0117,0.2266,-0.9546,0.0338,0.0055,0.0806,0.0159,0.0190,-0.0030,-35.365362810004015,149.09506469978865,618.6759,0.0000,0.3560,-0.2256,0.0139
2024-09-29T08:30:04.950Z,-0.0122,0.2318,-0.9743,0.0338,0.0055,0.0806,0.0016,0.0047,-0.0073,-35.365362810004015,149.09506469978865,618.6759,0.0000,0.3560,-0.2256,0.0137
2024-09-29T08:30:04.961Z,0.0258,0.2186,-0.9650,0.0338,0.0055,0.0806,0.0009,0.0017,-0.0098,-35.365362810004015,149.09506469978865,618.6759,0.0000,0.3560,-0.2256,0.0137
2024-09-29T08:30:04.970Z,0.0250,0.2178,-1.0013,0.0338,0.0055,0.0806,0.0088,-0.0104,-0.0089,-35.365362810004015,149.09506469978865,618.6759,0.0000,0.3560,-0.2256,0.0139
2024-09-29T08:30:04.980Z,0.0094,0.2238,-0.9525,0.0338,0.0055,0.0806,0.0144,0.0192,-0.0027,-35.365362810004015,149.09506469978865,618.6759,0.0000,0.3560,-0.2256,0.0138
2024-09-29T08:30:04.994Z,0.0011,0.2308,-0.9704,0.0338,0.0055,0.0806,0.0122,0.0149,-0.0033,-35.365362810004015,149.09506469978865,618.6759,0.0000,0.3560,-0.2256,0.0138
2024-09-29T08:30:05.000Z,0.0311,0.2137,-0.9829,0.0338,0.0055,0.0806,0.0023,0.0048,-0.0108,-35.365362810004015,149.09506469978865,618.6759,0.0000,0.3560,-0.2255,0.0139
2024-09-29T08:30:05.012Z,0.0218,0.2196,-0.9770,0.0338,0.0055,0.0806,0.0050,0.0052,-0.0037,-35.365362810004015,149.09506469978865,618.6759,0.0000,0.3560,-0.2255,0.0139
2024-09-29T08:30:05.020Z,-0.0072,0.2229,-0.9583,0.0338,0.0055,0.0806,0.0040,-0.0148,-0.0040,-35.365362810004015,149.09506469978865,618.6759,0.0000,0.3560,-0.2256,0.0137
2024-09-29T08:30:05.030Z,0.0102,0.2305,-0.9633,0.0338,0.0055,0.0806,0.0125,0.0260,-0.0055,-35.365362810004015,149.09506469978865,618.6759,0.0000,0.3561,-0.2256,0.0138
2024-09-29T08:30:05.045Z,0.0218,0.2130,-0.9990,0.0338,0.0055,0.0806,0.0084,0.0089,-0.0094,-35.365362810004015,149.09506469978865,618.6759,0.0000,0.3560,-0.2255,0.0139
2024-09-29T08:30:05.050Z,0.0170,0.2256,-0.9589,0.0338,0.0055,0.0806,0.0092,0.0113,-0.0015,-35.365362810004015,149.09506469978865,618.6759,0.0000,0.3560,-0.2256,0.0139
2024-09-29T08:30:05.061Z,-0.0065,0.2256,-0.9706,0.0338,0.0055,0.0806,0.0048,-0.0177,-0.0068,-35.365362810004015,149.09506469978865,618.6759,0.0000,0.3561,-0.2256,0.0138
2024-09-29T08:30:05.070Z,0.0275,0.2229,-0.9589,0.0338,0.0055,0.0806,0.0042,0.0162,-0.0078,-35.365362810004015,149.09506469978865,618.6759,0.0000,0.3561,-0.2255,0.0139
2024-09-29T08:30:05.081Z,0.0279,0.2146,-1.0085,0.0338,0.0055,0.0806,0.0085,-0.0099,-0.0105,-35.365362810004015,149.09506469978865,618.6759,0.0000,0.3561,-0.2255,0.0139
2024-09-29T08:30:05.094Z,0.0122,0.2254,-0.9532,0.0338,0.0055,0.0806,0.0125,0.0184,-0.0048,-35.365362810004015,149.09506469978865,618.6759,0.0000,0.3561,-0.2255,0.0139
2024-09-29T08:30:05.100Z,-0.0076,0.2319,-0.9797,0.0338,0.0055,0.0806,-0.0002,0.0098,-0.0038,-35.365362810004015,149.09506469978865,618.6759,0.0000,0.3561,-0.2256,0.0137
2024-09-29T08:30:05.111Z,0.0268,0.2178,-0.9669,0.0338,0.0055,0.0806,0.0049,-0.0034,-0.0096,-35.365362810004015,149.09506469978865,618.6759,0.0000,0.3561,-0.2255,0.0139
2024-09-29T08:30:05.121Z,0.0239,0.2205,-0.9947,0.0338,0.0055,0.0806,0.0074,-0.0004,-0.0102,-35.365362810004015,149.09506469978865,618.6759,0.0000,0.3561,-0.2255,0.0139
2024-09-29T08:30:05.130Z,0.0096,0.2227,-0.9552,0.0338,0.0055,0.0806,0.0082,0.0076,-0.0052,-35.365362810004015,149.09506469978865,618.6759,0.0000,0.3561,-0.2255,0.0137
2024-09-29T08:30:05.141Z,0.0088,0.2312,-0.9687,0.0338,0.0055,0.0806,0.0112,0.0145,-0.0041,-35.365362810004015,149.09506469978865,618.6759,0.0000,0.3561,-0.2256,0.0138
2024-09-29T08:30:05.151Z,0.0088,0.2312,-0.9687,0.0338,0.0055,0.0806,0.0112,0.0145,-0.0041,-35.365362810004015,149.09506469978865,618.6759,0.0000,0.3561,-0.2256,0.0138
2024-09-29T08:30:05.161Z,0.0208,0.2212,-0.9711,0.0338,0.0055,0.0806,0.0052,0.0108,-0.0047,-35.365362810004015,149.09506469978865,618.6759,0.0000,0.3561,-0.2255,0.0139
2024-09-29T08:30:05.170Z,-0.0096,0.2244,-0.9602,0.0338,0.0055,0.0806,0.0064,-0.0229,-0.0038,-35.365362810004015,149.09506469978865,618.6759,0.0000,0.3561,-0.2255,0.0138
2024-09-29T08:30:05.180Z,0.0156,0.2310,-0.9624,0.0338,0.0055,0.0806,0.0094,0.0206,-0.0081,-35.365362810004015,149.09506469978865,618.6759,0.0000,0.3561,-0.2256,0.0139
2024-09-29T08:30:05.190Z,0.0267,0.2129,-1.0000,0.0338,0.0055,0.0806,0.0066,0.0016,-0.0101,-35.365362810004015,149.09506469978865,618.6759,0.0000,0.3561,-0.2255,0.0140
2024-09-29T08:30:05.200Z,0.0204,0.2274,-0.9580,0.0338,0.0055,0.0806,0.0142,0.0128,-0.0008,-35.365362810004015,149.09506469978865,618.6759,0.0000,0.3561,-0.2255,0.0139
2024-09-29T08:30:05.211Z,-0.0056,0.2298,-0.9809,0.0338,0.0055,0.0806,0.0015,-0.0054,-0.0086,-35.365362810004015,149.09506469978865,618.6759,0.0000,0.3561,-0.2255,0.0139
2024-09-29T08:30:05.220Z,0.0290,0.2225,-0.9582,0.0338,0.0055,0.0806,0.0005,0.0088,-0.0082,-35.365362810004015,149.09506469978865,618.6759,0.0000,0.3561,-0.2255,0.0140
2024-09-29T08:30:05.230Z,0.0231,0.2156,-1.0005,0.0338,0.0055,0.0806,0.0089,-0.0087,-0.0088,-35.365362810004015,149.09506469978865,618.6759,0.0000,0.3561,-0.2255,0.0140
2024-09-29T08:30:05.241Z,0.0057,0.2259,-0.9514,0.0338,0.0055,0.0806,0.0098,0.0172,-0.0074,-35.365362810004015,149.09506469978865,618.6759,0.0000,0.3561,-0.2255,0.0140
2024-09-29T08:30:05.250Z,-0.0046,0.2325,-0.9773,0.0338,0.0055,0.0806,0.0077,0.0044,-0.0054,-35.365362810004015,149.09506469978865,618.6759,0.0000,0.3561,-0.2255,0.0138
2024-09-29T08:30:05.262Z,0.0255,0.2162,-0.9694,0.0338,0.0055,0.0806,0.0087,0.0064,-0.0094,-35.365362810004015,149.09506469978865,618.6759,0.0000,0.3561,-0.2255,0.0138
2024-09-29T08:30:05.270Z,0.0240,0.2167,-0.9894,0.0338,0.0055,0.0806,0.0103,0.0120,-0.0066,-35.365362810004015,149.09506469978865,618.6759,0.0000,0.3561,-0.2255,0.0140
2024-09-29T08:30:05.280Z,0.0019,0.2223,-0.9567,0.0338,0.0055,0.0806,0.0118,-0.0010,-0.0059,-35.365362810004015,149.09506469978865,618.6759,0.0000,0.3561,-0.2255,0.0139
2024-09-29T08:30:05.291Z,0.0073,0.2294,-0.9650,0.0338,0.0055,0.0806,0.0123,0.0143,-0.0080,-35.365362810004015,149.09506469978865,618.6759,0.0000,0.3561,-0.2255,0.0140
2024-09-29T08:30:05.300Z,0.0300,0.2103,-0.9884,0.0338,0.0055,0.0806,0.0057,0.0076,-0.0079,-35.365362810004015,149.09506469978865,618.6759,0.0000,0.3561,-0.2255,0.0140
2024-09-29T08:30:05.312Z,0.0180,0.2197,-0.9685,0.0338,0.0055,0.0806,0.0116,0.0146,-0.0013,-35.365362810004015,149.09506469978865,618.6759,0.0000,0.3562,-0.2255,0.0140
2024-09-29T08:30:05.321Z,-0.0120,0.2242,-0.9695,0.0338,0.0055,0.0806,0.0073,-0.0204,-0.0070,-35.365362810004015,149.09506469978865,618.6759,0.0000,0.3561,-0.2255,0.0139
2024-09-29T08:30:05.330Z,0.0143,0.2263,-0.9603,0.0338,0.0055,0.0806,0.0086,0.0211,-0.0064,-35.365362810004015,149.09506469978865,618.6759,0.0000,0.3562,-0.2255,0.0140
2024-09-29T08:30:05.341Z,0.0216,0.2135,-1.0013,0.0338,0.0055,0.0806,0.0084,-0.0009,-0.0115,-35.365362810004015,149.09506469978865,618.6759,0.0000,0.3562,-0.2254,0.0140
2024-09-29T08:30:05.350Z,0.0129,0.2240,-0.9516,0.0338,0.0055,0.0806,0.0152,0.0138,-0.0041,-35.365362810004015,149.09506469978865,618.6759,0.0000,0.3562,-0.2255,0.0139
2024-09-29T08:30:05.363Z,-0.0117,0.2266,-0.9762,0.0338,0.0055,0.0806,0.0009,0.0057,-0.0065,-35.365362810004015,149.09506469978865,618.6759,0.0000,0.3562,-0.2255,0.0139
2024-09-29T08:30:05.370Z,0.0281,0.2184,-0.9635,0.0338,0.0055,0.0806,0.0008,0.0072,-0.0091,-35.365362810004015,149.09506469978865,618.6759,0.0000,0.3562,-0.2254,0.0140
2024-09-29T08:30:05.380Z,0.0253,0.2149,-0.9975,0.0338,0.0055,0.0806,0.0059,-0.0112,-0.0125,-35.365362810004015,149.09506469978865,618.6759,0.0000,0.3562,-0.2254,0.0141
2024-09-29T08:30:05.391Z,0.0040,0.2238,-0.9502,0.0338,0.0055,0.0806,0.0100,0.0164,-0.0057,-35.365362810004015,149.09506469978865,618.6759,0.0000,0.3562,-0.2254,0.0141
2024-09-29T08:30:05.400Z,-0.0058,0.2319,-0.9806,0.0338,0.0055,0.0806,0.0112,0.0173,-0.0045,-35.365362810004015,149.09506469978865,618.6759,0.0000,0.3561,-0.2254,0.0138
2024-09-29T08:30:05.413Z,0.0239,0.2168,-0.9766,0.0338,0.0055,0.0806,0.0041,0.0141,-0.0080,-35.365362810004015,149.09506469978865,618.6759,0.0000,0.3561,-0.2254,0.0138
2024-09-29T08:30:05.420Z,0.0220,0.2243,-0.9815,0.0338,0.0055,0.0806,-0.0022,-0.0003,-0.0107,-35.365362810004015,149.09506469978865,618.6759,0.0000,0.3562,-0.2254,0.0140
2024-09-29T08:30:05.430Z,0.0040,0.2256,-0.9555,0.0338,0.0055,0.0806,-0.0031,-0.0263,-0.0039,-35.365362810004015,149.09506469978865,618.6759,0.0000,0.3562,-0.2254,0.0139
2024-09-29T08:30:05.441Z,0.0149,0.2270,-0.9740,0.0338,0.0055,0.0806,0.0022,0.0217,-0.0053,-35.365362810004015,149.09506469978865,618.6759,0.0000,0.3561,-0.2254,0.0138
2024-09-29T08:30:05.450Z,0.0240,0.2142,-0.9944,0.0338,0.0055,0.0806,0.0010,0.0083,-0.0089,-35.365362810004015,149.09506469978865,618.6759,0.0000,0.3562,-0.2254,0.0139
2024-09-29T08:30:05.462Z,0.0253,0.2298,-0.9547,0.0338,0.0055,0.0806,0.0152,0.0062,-0.0078,-35.365362810004015,149.09506469978865,618.6759,0.0000,0.3562,-0.2254,0.0139
2024-09-29T08:30:05.470Z,-0.0030,0.2181,-0.9672,0.0338,0.0055,0.0806,0.0152,0.0062,-0.0078,-35.365362810004015,149.09506469978865,618.6759,0.0000,0.3561,-0.2254,0.0139
2024-09-29T08:30:05.480Z,0.0082,0.2312,-0.9741,0.0338,0.0055,0.0806,0.0302,0.0471,-0.0082,-35.365362810004015,149.09506469978865,618.6759,0.0000,0.3562,-0.2254,0.0139
2024-09-29T08:30:05.491Z,0.0304,0.2180,-1.0042,0.0338,0.0055,0.0806,0.0078,0.0035,-0.0122,-35.365362810004015,149.09506469978865,618.6759,0.0000,0.3562,-0.2254,0.0139
2024-09-29T08:30:05.500Z,0.0131,0.2284,-0.9314,0.0338,0.0055,0.0806,-0.0045,-0.0126,-0.0055,-35.365362810004015,149.09506469978865,618.6759,0.0000,0.3561,-0.2254,0.0138
2024-09-29T08:30:05.513Z,-0.0033,0.2324,-0.9769,0.0338,0.0055,0.0806,-0.0115,-0.0038,-0.0078,-35.365362810004015,149.09506469978865,618.6759,0.0000,0.3561,-0.2254,0.0138
2024-09-29T08:30:05.520Z,0.0329,0.2143,-0.9812,0.0338,0.0055,0.0806,0.0035,0.0146,-0.0082,-35.365362810004015,149.09506469978865,618.6759,0.0000,0.3561,-0.2255,0.0138
2024-09-29T08:30:05.530Z,0.0316,0.2188,-0.9897,0.0338,0.0055,0.0806,0.0167,-0.0019,-0.0053,-35.365362810004015,149.09506469978865,618.6759,0.0000,0.3562,-0.2254,0.0139
2024-09-29T08:30:05.541Z,-0.0012,0.2300,-0.9450,0.0338,0.0055,0.0806,0.0258,0.0271,-0.0043,-35.365362810004015,149.09506469978865,618.6759,0.0000,0.3561,-0.2254,0.0140
2024-09-29T08:30:05.550Z,-0.0011,0.2344,-0.9839,0.0338,0.0055,0.0806,0.0003,0.0216,-0.0047,-35.365362810004015,149.09506469978865,618.6759,0.0000,0.3562,-0.2254,0.0139
2024-09-29T08:30:05.563Z,0.0300,0.2210,-0.9946,0.0338,0.0055,0.0806,-0.0144,-0.0174,-0.0129,-35.365362810004015,149.09506469978865,618.6759,0.0000,0.3562,-0.2255,0.0138
2024-09-29T08:30:05.570Z,0.0183,0.2131,-0.9560,0.0338,0.0055,0.0806,-0.0144,-0.0174,-0.0129,-35.365362810004015,149.09506469978865,618.6759,0.0000,0.3562,-0.2254,0.0140
2024-09-29T08:30:05.580Z,0.0063,0.2252,-0.9458,0.0338,0.0055,0.0806,0.0091,0.0037,-0.0099,-35.365362810004015,149.09506469978865,618.6759,0.0000,0.3562,-0.2254,0.0139
2024-09-29T08:30:05.590Z,0.0187,0.2293,-1.0002,0.0338,0.0055,0.0806,0.0091,0.0037,-0.0099,-35.365362810004015,149.09506469978865,618.6759,0.0000,0.3562,-0.2254,0.0138
2024-09-29T08:30:05.600Z,0.0243,0.2073,-0.9900,0.0338,0.0055,0.0806,0.0195,-0.0242,-0.0119,-35.365362810004015,149.09506469978865,618.6759,0.0000,0.3562,-0.2254,0.0138
2024-09-29T08:30:05.613Z,0.0199,0.2283,-0.9333,0.0338,0.0055,0.0806,0.0285,0.0344,-0.0034,-35.365362810004015,149.09506469978865,618.6759,0.0000,0.3562,-0.2254,0.0139
2024-09-29T08:30:05.620Z,-0.0182,0.2269,-0.9818,0.0338,0.0055,0.0806,0.0285,0.0344,-0.0034,-35.365362810004015,149.09506469978865,618.6759,0.0000,0.3562,-0.2254,0.0138
2024-09-29T08:30:05.630Z,0.0181,0.2181,-0.9727,0.0338,0.0055,0.0806,0.0052,-0.0102,-0.0088,-35.365362810004015,149.09506469978865,618.6759,0.0000,0.3561,-0.2255,0.0137
2024-09-29T08:30:05.640Z,0.0210,0.2203,-1.0033,0.0338,0.0055,0.0806,-0.0015,0.0147,-0.0086,-35.365362810004015,149.09506469978865,618.6759,0.0000,0.3561,-0.2255,0.0139
2024-09-29T08:30:05.650Z,0.0128,0.2336,-0.9261,0.0338,0.0055,0.0806,0.0079,-0.0211,-0.0069,-35.365362810004015,149.09506469978865,618.6759,0.0000,0.3561,-0.2254,0.0139
2024-09-29T08:30:05.664Z,-0.0042,0.2219,-0.9771,0.0338,0.0055,0.0806,-0.0021,0.0223,-0.0061,-35.365362810004015,149.09506469978865,618.6759,0.0000,0.3561,-0.2254,0.0138
2024-09-29T08:30:05.670Z,0.0251,0.2159,-1.0061,0.0338,0.0055,0.0806,-0.0021,0.0223,-0.0061,-35.365362810004015,149.09506469978865,618.6759,0.0000,0.3561,-0.2254,0.0138
2024-09-29T08:30:05.680Z,0.0209,0.2181,-0.9688,0.0338,0.0055,0.0806,0.0060,0.0043,-0.0100,-35.365362810004015,149.09506469978865,618.6759,0.0000,0.3561,-0.2254,0.0139
2024-09-29T08:30:05.690Z,0.0037,0.2289,-0.9302,0.0338,0.0055,0.0806,0.0161,-0.0156,-0.0099,-35.365362810004015,149.09506469978865,618.6759,0.0000,0.3561,-0.2254,0.0139
2024-09-29T08:30:05.700Z,-0.0071,0.2279,-0.9996,0.0338,0.0055,0.0806,0.0110,0.0167,-0.0073,-35.365362810004015,149.09506469978865,618.6759,0.0000,0.3561,-0.2254,0.0137
2024-09-29T08:30:05.714Z,0.0252,0.2057,-0.9920,0.0338,0.0055,0.0806,0.0051,0.0137,-0.0065,-35.365362810004015,149.09506469978865,618.6759,0.0000,0.3561,-0.2254,0.0137
2024-09-29T08:30:05.720Z,0.0222,0.2321,-0.9586,0.0338,0.0055,0.0806,0.0051,0.0137,-0.0065,-35.365362810004015,149.09506469978865,618.6759,0.0000,0.3561,-0.2254,0.0139
2024-09-29T08:30:05.730Z,-0.0066,0.2206,-0.9391,0.0338,0.0055,0.0806,0.0117,0.0055,-0.0061,-35.365362810004015,149.09506469978865,618.6759,0.0000,0.3561,-0.2255,0.0138
2024-09-29T08:30:05.740Z,0.0156,0.2155,-0.9882,0.0338,0.0055,0.0806,0.0049,-0.0171,-0.0051,-35.365362810004015,149.09506469978865,618.6759,0.0000,0.3561,-0.2254,0.0137
2024-09-29T08:30:05.750Z,0.0313,0.2134,-1.0117,0.0338,0.0055,0.0806,0.0039,0.0295,-0.0064,-35.365362810004015,149.09506469978865,618.6759,0.0000,0.3561,-0.2254,0.0138
2024-09-29T08:30:05.764Z,0.0166,0.2279,-0.9260,0.0338,0.0055,0.0806,0.0176,0.0098,-0.0027,-35.365362810004015,149.09506469978865,618.6759,0.0000,0.3561,-0.2254,0.0139
2024-09-29T08:30:05.770Z,-0.0180,0.2245,-0.9676,0.0338,0.0055,0.0806,0.0176,0.0098,-0.0027,-35.365362810004015,149.09506469978865,618.6759,0.0000,0.3561,-0.2254,0.0138
2024-09-29T08:30:05.780Z,0.0220,0.2127,-0.9879,0.0338,0.0055,0.0806,-0.0034,0.0064,-0.0059,-35.365362810004015,149.09506469978865,618.6759,0.0000,0.3561,-0.2254,0.0137
2024-09-29T08:30:05.790Z,0.0266,0.2170,-0.9984,0.0338,0.0055,0.0806,0.0009,0.0186,-0.0101,-35.365362810004015,149.09506469978865,618.6759,0.0000,0.3561,-0.2254,0.0138
2024-09-29T08:30:05.800Z,0.0113,0.2299,-0.9246,0.0338,0.0055,0.0806,0.0095,-0.0189,-0.0070,-35.365362810004015,149.09506469978865,618.6759,0.0000,0.3561,-0.2254,0.0138
2024-09-29T08:30:05.814Z,-0.0038,0.2230,-0.9853,0.0338,0.0055,0.0806,0.0037,0.0234,-0.0051,-35.365362810004015,149.09506469978865,618.6759,0.0000,0.3561,-0.2254,0.0137
2024-09-29T08:30:05.820Z,0.0343,0.2096,-1.0025,0.0338,0.0055,0.0806,0.0037,0.0234,-0.0051,-35.365362810004015,149.09506469978865,618.6759,0.0000,0.3561,-0.2254,0.0137
2024-09-29T08:30:05.830Z,0.0245,0.2258,-0.9781,0.0338,0.0055,0.0806,0.0059,0.0132,-0.0074,-35.365362810004015,149.09506469978865,618.6759,0.0000,0.3562,-0.2254,0.0139
2024-09-29T08:30:05.840Z,-0.0010,0.2245,-0.9360,0.0338,0.0055,0.0806,0.0110,0.0034,-0.0038,-35.365362810004015,149.09506469978865,618.6759,0.0000,0.3562,-0.2254,0.0138
2024-09-29T08:30:05.850Z,0.0032,0.2258,-0.9953,0.0338,0.0055,0.0806,0.0087,-0.0034,-0.0033,-35.365362810004015,149.09506469978865,618.6759,0.0000,0.3562,-0.2254,0.0137
2024-09-29T08:30:05.864Z,0.0293,0.2122,-1.0095,0.0338,0.0055,0.0806,0.0085,0.0014,-0.0062,-35.365362810004015,149.09506469978865,618.6759,0.0000,0.3562,-0.2254,0.0138
2024-09-29T08:30:05.870Z,0.0257,0.2321,-0.9478,0.0338,0.0055,0.0806,0.0085,0.0014,-0.0062,-35.365362810004015,149.09506469978865,618.6759,0.0000,0.3562,-0.2253,0.0139
